[{"id": "1143", "name": "Proctor St opp Maclean St", "parent_station": null, "location": {"lat": -35.415211, "lng": 149.12515}, "accessibility": {"wheelchair": "none"}}, {"id": "1144", "name": "Proctor St after MacLean St", "parent_station": null, "location": {"lat": -35.415327, "lng": 149.125257}, "accessibility": {"wheelchair": "none"}}, {"id": "1202", "name": "Pockett Av after Bellchambers Cr", "parent_station": null, "location": {"lat": -35.474078, "lng": 149.093168}, "accessibility": {"wheelchair": "none"}}, {"id": "1203", "name": "Pockett Av after Wilson Cr", "parent_station": null, "location": {"lat": -35.471702, "lng": 149.096924}, "accessibility": {"wheelchair": "none"}}, {"id": "1204", "name": "Pockett Av after 2nd Ironbark Cr", "parent_station": null, "location": {"lat": -35.469475, "lng": 149.097634}, "accessibility": {"wheelchair": "none"}}, {"id": "1205", "name": "Pockett Av after Perrin Cct", "parent_station": null, "location": {"lat": -35.467558, "lng": 149.095362}, "accessibility": {"wheelchair": "none"}}, {"id": "1206", "name": "Pockett Av before Thomas Hart St", "parent_station": null, "location": {"lat": -35.46528, "lng": 149.094099}, "accessibility": {"wheelchair": "none"}}, {"id": "1224", "name": "Pockett Av before Box Hill Av", "parent_station": null, "location": {"lat": -35.464987, "lng": 149.093953}, "accessibility": {"wheelchair": "none"}}, {"id": "1225", "name": "Pockett Av before 2nd Tregellas Cr", "parent_station": null, "location": {"lat": -35.46759, "lng": 149.095269}, "accessibility": {"wheelchair": "none"}}, {"id": "1226", "name": "Pockett Av opp Wiburd St", "parent_station": null, "location": {"lat": -35.470394, "lng": 149.097662}, "accessibility": {"wheelchair": "none"}}, {"id": "1228", "name": "Pockett Av before Brockway Cct", "parent_station": null, "location": {"lat": -35.473497, "lng": 149.091731}, "accessibility": {"wheelchair": "none"}}, {"id": "1240", "name": "Preddey Way at Fingleton Cr", "parent_station": null, "location": {"lat": -35.448164, "lng": 149.084205}, "accessibility": {"wheelchair": "none"}}, {"id": "1681", "name": "Paperbark St after Galbraith Cl", "parent_station": null, "location": {"lat": -35.472399, "lng": 149.103205}, "accessibility": {"wheelchair": "none"}}, {"id": "1682", "name": "Paperbark St after Troughton St", "parent_station": null, "location": {"lat": -35.472405, "lng": 149.103104}, "accessibility": {"wheelchair": "none"}}, {"id": "1683", "name": "Paperbark St before 2nd Kettlewell Cr", "parent_station": null, "location": {"lat": -35.469199, "lng": 149.104669}, "accessibility": {"wheelchair": "none"}}, {"id": "1684", "name": "Paperbark St opp 1st Kettlewell Cr", "parent_station": null, "location": {"lat": -35.469855, "lng": 149.104424}, "accessibility": {"wheelchair": "none"}}, {"id": "1685", "name": "Paperbark St after 1st Kettlewell Cr", "parent_station": null, "location": {"lat": -35.468349, "lng": 149.105689}, "accessibility": {"wheelchair": "none"}}, {"id": "1686", "name": "Paperbark St before Jane Sutherland St", "parent_station": null, "location": {"lat": -35.468242, "lng": 149.105985}, "accessibility": {"wheelchair": "none"}}, {"id": "2050", "name": "Pearce Shops Macfarland Cr", "parent_station": null, "location": {"lat": -35.362987, "lng": 149.081353}, "accessibility": {"wheelchair": "none"}}, {"id": "2156", "name": "Perry Dr before Rene St", "parent_station": null, "location": {"lat": -35.354717, "lng": 149.034561}, "accessibility": {"wheelchair": "none"}}, {"id": "2157", "name": "Perry Dr after 2nd Sidaway St", "parent_station": null, "location": {"lat": -35.354636, "lng": 149.03446}, "accessibility": {"wheelchair": "none"}}, {"id": "2158", "name": "Perry Dr before Musgrove St", "parent_station": null, "location": {"lat": -35.356882, "lng": 149.036443}, "accessibility": {"wheelchair": "none"}}, {"id": "2159", "name": "Perry Dr after Lipman St", "parent_station": null, "location": {"lat": -35.357012, "lng": 149.036867}, "accessibility": {"wheelchair": "none"}}, {"id": "2160", "name": "Perry Dr opp Chapman Shops", "parent_station": null, "location": {"lat": -35.356227, "lng": 149.040111}, "accessibility": {"wheelchair": "none"}}, {"id": "2162", "name": "Perry Dr opp Chapman PS", "parent_station": null, "location": {"lat": -35.356886, "lng": 149.042435}, "accessibility": {"wheelchair": "none"}}, {"id": "2164", "name": "Perry Dr at Bertel Cr", "parent_station": null, "location": {"lat": -35.359509, "lng": 149.04454}, "accessibility": {"wheelchair": "none"}}, {"id": "2165", "name": "Perry Dr opp Bertel Cr", "parent_station": null, "location": {"lat": -35.359309, "lng": 149.044375}, "accessibility": {"wheelchair": "none"}}, {"id": "2203", "name": "Parkinson St opp Backler Pl", "parent_station": null, "location": {"lat": -35.343276, "lng": 149.055773}, "accessibility": {"wheelchair": "none"}}, {"id": "2204", "name": "Parkinson St at Backler Pl", "parent_station": null, "location": {"lat": -35.343409, "lng": 149.055764}, "accessibility": {"wheelchair": "none"}}, {"id": "2245", "name": "Parliament House Federation Mall Northbound", "parent_station": null, "location": {"lat": -35.305533, "lng": 149.126073}, "accessibility": {"wheelchair": "none"}}, {"id": "2246", "name": "Parliament House Federation Mall Southbound", "parent_station": null, "location": {"lat": -35.306085, "lng": 149.127012}, "accessibility": {"wheelchair": "none"}}, {"id": "2586", "name": "Parliament House Parliament Dr Southbound", "parent_station": null, "location": {"lat": -35.307268, "lng": 149.122739}, "accessibility": {"wheelchair": "none"}}, {"id": "2587", "name": "Parliament House Parliament Dr Northbound", "parent_station": null, "location": {"lat": -35.309077, "lng": 149.126087}, "accessibility": {"wheelchair": "none"}}, {"id": "3065", "name": "Parnell St opp Combes Rd", "parent_station": null, "location": {"lat": -35.299016, "lng": 149.165864}, "accessibility": {"wheelchair": "none"}}, {"id": "3066", "name": "Parnell St before Plant Rd", "parent_station": null, "location": {"lat": -35.299781, "lng": 149.165019}, "accessibility": {"wheelchair": "none"}}, {"id": "3067", "name": "Parnell St after Plant Rd", "parent_station": null, "location": {"lat": -35.300218, "lng": 149.164438}, "accessibility": {"wheelchair": "none"}}, {"id": "3205", "name": "Phillip Av opp Madigan St", "parent_station": null, "location": {"lat": -35.252667, "lng": 149.159123}, "accessibility": {"wheelchair": "none"}}, {"id": "3206", "name": "Phillip Av before Madigan St", "parent_station": null, "location": {"lat": -35.252836, "lng": 149.159634}, "accessibility": {"wheelchair": "none"}}, {"id": "3207", "name": "Phillip Av before Majura Av", "parent_station": null, "location": {"lat": -35.251424, "lng": 149.156883}, "accessibility": {"wheelchair": "none"}}, {"id": "3208", "name": "Phillip Av after Stott St", "parent_station": null, "location": {"lat": -35.251153, "lng": 149.156741}, "accessibility": {"wheelchair": "none"}}, {"id": "3261", "name": "Parkes Pl opp John Gorton Building", "parent_station": null, "location": {"lat": -35.301181, "lng": 149.133731}, "accessibility": {"wheelchair": "none"}}, {"id": "4471", "name": "Petterd St after Roseby St", "parent_station": null, "location": {"lat": -35.239205, "lng": 149.045751}, "accessibility": {"wheelchair": "none"}}, {"id": "4472", "name": "Petterd St after 2nd Hannaford St", "parent_station": null, "location": {"lat": -35.239286, "lng": 149.044929}, "accessibility": {"wheelchair": "none"}}, {"id": "4473", "name": "Petterd St after Halford Cr", "parent_station": null, "location": {"lat": -35.239529, "lng": 149.048526}, "accessibility": {"wheelchair": "none"}}, {"id": "4474", "name": "Petterd St after Herrgott St", "parent_station": null, "location": {"lat": -35.239691, "lng": 149.048471}, "accessibility": {"wheelchair": "none"}}, {"id": "4475", "name": "Page Shops Petterd St", "parent_station": null, "location": {"lat": -35.240112, "lng": 149.052355}, "accessibility": {"wheelchair": "none"}}, {"id": "4476", "name": "Petterd St opp Page Shops", "parent_station": null, "location": {"lat": -35.240287, "lng": 149.052366}, "accessibility": {"wheelchair": "none"}}, {"id": "4593", "name": "Phillip Av after Antill St", "parent_station": null, "location": {"lat": -35.245158, "lng": 149.153531}, "accessibility": {"wheelchair": "none"}}, {"id": "4594", "name": "Phillip Av before Antill St", "parent_station": null, "location": {"lat": -35.244404, "lng": 149.15344}, "accessibility": {"wheelchair": "none"}}, {"id": "4595", "name": "Phillip Av after Shirley St", "parent_station": null, "location": {"lat": -35.242984, "lng": 149.151633}, "accessibility": {"wheelchair": "none"}}, {"id": "4596", "name": "Phillip Av opp Shirley St", "parent_station": null, "location": {"lat": -35.243174, "lng": 149.152233}, "accessibility": {"wheelchair": "none"}}, {"id": "4597", "name": "Phillip Av before Bradfield St", "parent_station": null, "location": {"lat": -35.241647, "lng": 149.150016}, "accessibility": {"wheelchair": "none"}}, {"id": "4720", "name": "Paul Coe Cr Shops Paul Coe Cr", "parent_station": null, "location": {"lat": -35.174667, "lng": 149.120042}, "accessibility": {"wheelchair": "none"}}, {"id": "4721", "name": "Paul Coe Cr after Paul Coe Cr Shops", "parent_station": null, "location": {"lat": -35.175402, "lng": 149.119933}, "accessibility": {"wheelchair": "none"}}, {"id": "4722", "name": "Paul Coe Cr after Mulleun Cl", "parent_station": null, "location": {"lat": -35.176311, "lng": 149.119521}, "accessibility": {"wheelchair": "none"}}, {"id": "4723", "name": "Paul Coe Cr after Noongale Cct", "parent_station": null, "location": {"lat": -35.176243, "lng": 149.119676}, "accessibility": {"wheelchair": "none"}}, {"id": "4724", "name": "Paul Coe Cr after Galmarra St", "parent_station": null, "location": {"lat": -35.177829, "lng": 149.118989}, "accessibility": {"wheelchair": "none"}}, {"id": "4725", "name": "Paul Coe Cr before Galmarra St", "parent_station": null, "location": {"lat": -35.177919, "lng": 149.11907}, "accessibility": {"wheelchair": "none"}}, {"id": "4780", "name": "Palmerston PS Koscuiszko Av", "parent_station": null, "location": {"lat": -35.197829, "lng": 149.121715}, "accessibility": {"wheelchair": "none"}}, {"id": "4841", "name": "Plimsoll Dr before 2nd Bott Cr", "parent_station": null, "location": {"lat": -35.163345, "lng": 149.098085}, "accessibility": {"wheelchair": "none"}}, {"id": "4842", "name": "Plimsoll Dr before Ronald Walker St", "parent_station": null, "location": {"lat": -35.162438, "lng": 149.098352}, "accessibility": {"wheelchair": "none"}}, {"id": "4846", "name": "Plimsoll Dr after Skermer St", "parent_station": null, "location": {"lat": -35.166761, "lng": 149.09624}, "accessibility": {"wheelchair": "none"}}, {"id": "4857", "name": "Plimsoll Dr before David Miller Cr", "parent_station": null, "location": {"lat": -35.168134, "lng": 149.095593}, "accessibility": {"wheelchair": "none"}}, {"id": "5038", "name": "Pro Hart Av after Stockdill Dr", "parent_station": null, "location": {"lat": -35.23252, "lng": 148.99938}, "accessibility": {"wheelchair": "none"}}, {"id": "5039", "name": "Pro Hart Av opp Stockdill Dr", "parent_station": null, "location": {"lat": -35.232887, "lng": 148.99811}, "accessibility": {"wheelchair": "none"}}, {"id": "5041", "name": "Pro Hart Av after Ariotti St", "parent_station": null, "location": {"lat": -35.229431, "lng": 148.994965}, "accessibility": {"wheelchair": "none"}}, {"id": "5050", "name": "Pro Hart Av after McClymont Way", "parent_station": null, "location": {"lat": -35.229543, "lng": 148.995136}, "accessibility": {"wheelchair": "none"}}, {"id": "5112", "name": "Pro Hart Av after Sally Ross Way", "parent_station": null, "location": {"lat": -35.223182, "lng": 148.993368}, "accessibility": {"wheelchair": "none"}}, {"id": "5996", "name": "Paul Coe Cr after Nona Pl", "parent_station": null, "location": {"lat": -35.177876, "lng": 149.122262}, "accessibility": {"wheelchair": "none"}}, {"id": "5999", "name": "Paul Coe Cr after Kardang St", "parent_station": null, "location": {"lat": -35.178271, "lng": 149.122458}, "accessibility": {"wheelchair": "none"}}, {"id": "8116", "name": "Phillip Avenue Platform 1", "parent_station": "PLP", "location": {"lat": -35.2358454, "lng": 149.1439324}, "accessibility": {"wheelchair": "none"}}, {"id": "8117", "name": "Phillip Avenue Platform 2", "parent_station": "PLP", "location": {"lat": -35.2357995, "lng": 149.1438889}, "accessibility": {"wheelchair": "none"}}, {"id": "PLP", "name": "Phillip Avenue", "parent_station": null, "location": {"lat": -35.235794, "lng": 149.143928}, "accessibility": {"wheelchair": "none"}}]