[{"id": "1191", "name": "Knoke Av opp Gordon PS", "parent_station": null, "location": {"lat": -35.458121, "lng": 149.086118}, "accessibility": {"wheelchair": "none"}}, {"id": "1192", "name": "Knoke Av before Oxenham Cct", "parent_station": null, "location": {"lat": -35.460578, "lng": 149.085659}, "accessibility": {"wheelchair": "none"}}, {"id": "1193", "name": "Knoke Av after Jim Pike Av", "parent_station": null, "location": {"lat": -35.462281, "lng": 149.083208}, "accessibility": {"wheelchair": "none"}}, {"id": "1199", "name": "Knoke Av after Clem Hill St", "parent_station": null, "location": {"lat": -35.464786, "lng": 149.084188}, "accessibility": {"wheelchair": "none"}}, {"id": "1200", "name": "Knoke Av after 2nd Harry Hopman Cct", "parent_station": null, "location": {"lat": -35.467259, "lng": 149.087641}, "accessibility": {"wheelchair": "none"}}, {"id": "1201", "name": "Knoke Av after 1st Harry Hopman Cct", "parent_station": null, "location": {"lat": -35.472807, "lng": 149.089281}, "accessibility": {"wheelchair": "none"}}, {"id": "1229", "name": "Knoke Av after Coventry Cl", "parent_station": null, "location": {"lat": -35.472849, "lng": 149.089454}, "accessibility": {"wheelchair": "none"}}, {"id": "1230", "name": "Knoke Av after Minnett Cl", "parent_station": null, "location": {"lat": -35.470765, "lng": 149.088898}, "accessibility": {"wheelchair": "none"}}, {"id": "1231", "name": "Knoke Av opp O'Hara Cl", "parent_station": null, "location": {"lat": -35.470876, "lng": 149.088786}, "accessibility": {"wheelchair": "none"}}, {"id": "1232", "name": "Knoke Av before 2nd Mina Wylie Cr", "parent_station": null, "location": {"lat": -35.467176, "lng": 149.087682}, "accessibility": {"wheelchair": "none"}}, {"id": "1233", "name": "Knoke Av before Matson St", "parent_station": null, "location": {"lat": -35.46567, "lng": 149.085585}, "accessibility": {"wheelchair": "none"}}, {"id": "1234", "name": "Knoke Av opp Jim Pike Av", "parent_station": null, "location": {"lat": -35.461984, "lng": 149.083647}, "accessibility": {"wheelchair": "none"}}, {"id": "1235", "name": "Knoke Av after Midge St", "parent_station": null, "location": {"lat": -35.460663, "lng": 149.085728}, "accessibility": {"wheelchair": "none"}}, {"id": "1272", "name": "Kambah Pool Rd after Sulwood Dr", "parent_station": null, "location": {"lat": -35.375136, "lng": 149.048963}, "accessibility": {"wheelchair": "none"}}, {"id": "1273", "name": "Kambah Pool Rd after Barritt St", "parent_station": null, "location": {"lat": -35.37534, "lng": 149.048615}, "accessibility": {"wheelchair": "none"}}, {"id": "1344", "name": "Kambah Village Marconi Cr", "parent_station": null, "location": {"lat": -35.379136, "lng": 149.057769}, "accessibility": {"wheelchair": "none"}}, {"id": "1474", "name": "Kirkton St before Greeves St", "parent_station": null, "location": {"lat": -35.397468, "lng": 149.089956}, "accessibility": {"wheelchair": "none"}}, {"id": "1475", "name": "Kirkton St before Wheeler Cr", "parent_station": null, "location": {"lat": -35.397537, "lng": 149.09017}, "accessibility": {"wheelchair": "none"}}, {"id": "1476", "name": "Kirkton St after 2nd Holden Cr", "parent_station": null, "location": {"lat": -35.397269, "lng": 149.094785}, "accessibility": {"wheelchair": "none"}}, {"id": "1477", "name": "Kirkton St after Embling St", "parent_station": null, "location": {"lat": -35.397309, "lng": 149.094195}, "accessibility": {"wheelchair": "none"}}, {"id": "1904", "name": "Knoke Av after 1st Mina Wylie Cr", "parent_station": null, "location": {"lat": -35.463902, "lng": 149.083174}, "accessibility": {"wheelchair": "none"}}, {"id": "2101", "name": "Kareelah Vsta after Mialli Pl", "parent_station": null, "location": {"lat": -35.35546, "lng": 149.107267}, "accessibility": {"wheelchair": "none"}}, {"id": "2102", "name": "Kareelah Vsta after Gerogery Pl", "parent_station": null, "location": {"lat": -35.355485, "lng": 149.107132}, "accessibility": {"wheelchair": "none"}}, {"id": "2103", "name": "Kareelah Vsta before Numeralla St", "parent_station": null, "location": {"lat": -35.357431, "lng": 149.107688}, "accessibility": {"wheelchair": "none"}}, {"id": "2104", "name": "Kareelah Vsta after Taronga Pl", "parent_station": null, "location": {"lat": -35.35778, "lng": 149.108376}, "accessibility": {"wheelchair": "none"}}, {"id": "2166", "name": "Kalgoorlie Cr before Callide St", "parent_station": null, "location": {"lat": -35.360207, "lng": 149.053153}, "accessibility": {"wheelchair": "none"}}, {"id": "2167", "name": "Kalgoorlie Cr before Kapunda St", "parent_station": null, "location": {"lat": -35.360216, "lng": 149.052935}, "accessibility": {"wheelchair": "none"}}, {"id": "2169", "name": "Kalgoorlie Cr opp Fisher Shops", "parent_station": null, "location": {"lat": -35.362054, "lng": 149.05648}, "accessibility": {"wheelchair": "none"}}, {"id": "2170", "name": "Kalgoorlie Cr after Kambalda Cr", "parent_station": null, "location": {"lat": -35.362863, "lng": 149.058952}, "accessibility": {"wheelchair": "none"}}, {"id": "2171", "name": "Kalgoorlie Cr opp Kambalda Cr", "parent_station": null, "location": {"lat": -35.362777, "lng": 149.058672}, "accessibility": {"wheelchair": "none"}}, {"id": "2172", "name": "Kalgoorlie Cr before 2nd Jarrahdale St", "parent_station": null, "location": {"lat": -35.360351, "lng": 149.060888}, "accessibility": {"wheelchair": "none"}}, {"id": "2173", "name": "Kalgoorlie Cr after 1st Pandanus St", "parent_station": null, "location": {"lat": -35.36006, "lng": 149.061206}, "accessibility": {"wheelchair": "none"}}, {"id": "2266", "name": "Kitchener St before 1st Gilmore Cr", "parent_station": null, "location": {"lat": -35.338278, "lng": 149.102482}, "accessibility": {"wheelchair": "none"}}, {"id": "2267", "name": "Kitchener St before Lynch St", "parent_station": null, "location": {"lat": -35.338147, "lng": 149.102228}, "accessibility": {"wheelchair": "none"}}, {"id": "2268", "name": "Kitchener St after McNicoll St", "parent_station": null, "location": {"lat": -35.335958, "lng": 149.100673}, "accessibility": {"wheelchair": "none"}}, {"id": "2269", "name": "Kitchener St before Birdwood St", "parent_station": null, "location": {"lat": -35.335187, "lng": 149.100011}, "accessibility": {"wheelchair": "none"}}, {"id": "2270", "name": "Kitchener St before Goble St", "parent_station": null, "location": {"lat": -35.333996, "lng": 149.098343}, "accessibility": {"wheelchair": "none"}}, {"id": "2271", "name": "Kitchener St opp Goble St", "parent_station": null, "location": {"lat": -35.333877, "lng": 149.097867}, "accessibility": {"wheelchair": "none"}}, {"id": "2272", "name": "Kent St opp Hughes Shops", "parent_station": null, "location": {"lat": -35.333129, "lng": 149.095038}, "accessibility": {"wheelchair": "none"}}, {"id": "2273", "name": "Kent St before Birdwood St", "parent_station": null, "location": {"lat": -35.329608, "lng": 149.094568}, "accessibility": {"wheelchair": "none"}}, {"id": "2274", "name": "Kent St after Jensen St", "parent_station": null, "location": {"lat": -35.329378, "lng": 149.094521}, "accessibility": {"wheelchair": "none"}}, {"id": "2275", "name": "Kent St opp Alfred Deakin HS", "parent_station": null, "location": {"lat": -35.325357, "lng": 149.096393}, "accessibility": {"wheelchair": "none"}}, {"id": "2279", "name": "Kent St opp Canberra Private Hospital", "parent_station": null, "location": {"lat": -35.319343, "lng": 149.09831}, "accessibility": {"wheelchair": "none"}}, {"id": "2291", "name": "Kent St opp Royal Life Saving House", "parent_station": null, "location": {"lat": -35.322115, "lng": 149.097904}, "accessibility": {"wheelchair": "none"}}, {"id": "2346", "name": "Kootara Cr after Deeban Pl", "parent_station": null, "location": {"lat": -35.333006, "lng": 149.158418}, "accessibility": {"wheelchair": "none"}}, {"id": "2347", "name": "Kootara Cr after Matina St", "parent_station": null, "location": {"lat": -35.333096, "lng": 149.158548}, "accessibility": {"wheelchair": "none"}}, {"id": "2348", "name": "Kootara Cr before Boolimba Cr", "parent_station": null, "location": {"lat": -35.332973, "lng": 149.156621}, "accessibility": {"wheelchair": "none"}}, {"id": "2351", "name": "Kootara Cr opp Narrabundah Shops", "parent_station": null, "location": {"lat": -35.331939, "lng": 149.153696}, "accessibility": {"wheelchair": "none"}}, {"id": "2352", "name": "Kootara Cr before Bundeela St", "parent_station": null, "location": {"lat": -35.331173, "lng": 149.152186}, "accessibility": {"wheelchair": "none"}}, {"id": "2354", "name": "Kootara Cr opp Narrabundah PS", "parent_station": null, "location": {"lat": -35.328893, "lng": 149.150082}, "accessibility": {"wheelchair": "none"}}, {"id": "2355", "name": "Kootara Cr before Keira St", "parent_station": null, "location": {"lat": -35.327325, "lng": 149.149504}, "accessibility": {"wheelchair": "none"}}, {"id": "2439", "name": "Kootara Cr after 2nd Gymea St", "parent_station": null, "location": {"lat": -35.332769, "lng": 149.156052}, "accessibility": {"wheelchair": "none"}}, {"id": "2444", "name": "Kootara Cr before McMillan Cr", "parent_station": null, "location": {"lat": -35.326259, "lng": 149.149166}, "accessibility": {"wheelchair": "none"}}, {"id": "2487", "name": "Kitchener St after Ainsworth St", "parent_station": null, "location": {"lat": -35.344435, "lng": 149.097398}, "accessibility": {"wheelchair": "none"}}, {"id": "2488", "name": "Kitchener St before Ainsworth St", "parent_station": null, "location": {"lat": -35.344604, "lng": 149.09724}, "accessibility": {"wheelchair": "none"}}, {"id": "2494", "name": "Kalgoorlie Cr after Mareeba St", "parent_station": null, "location": {"lat": -35.357795, "lng": 149.053453}, "accessibility": {"wheelchair": "none"}}, {"id": "2495", "name": "Kalgoorlie Cr before 2nd Bendigo St", "parent_station": null, "location": {"lat": -35.357755, "lng": 149.053334}, "accessibility": {"wheelchair": "none"}}, {"id": "2596", "name": "Kingston Shops Eyre St", "parent_station": null, "location": {"lat": -35.316625, "lng": 149.141813}, "accessibility": {"wheelchair": "none"}}, {"id": "2598", "name": "Kingston Shops Giles St", "parent_station": null, "location": {"lat": -35.315802, "lng": 149.140198}, "accessibility": {"wheelchair": "none"}}, {"id": "2730", "name": "Kent St after Macartney Cr", "parent_station": null, "location": {"lat": -35.317013, "lng": 149.098298}, "accessibility": {"wheelchair": "none"}}, {"id": "2731", "name": "Kent St after Strickland Cr", "parent_station": null, "location": {"lat": -35.317149, "lng": 149.098201}, "accessibility": {"wheelchair": "none"}}, {"id": "2828", "name": "Kondelea Way before Goldbloom St", "parent_station": null, "location": {"lat": -35.30472, "lng": 149.02129}, "accessibility": {"wheelchair": "none"}}, {"id": "2829", "name": "Kondelea Way before Eggins St", "parent_station": null, "location": {"lat": -35.30523, "lng": 149.02135}, "accessibility": {"wheelchair": "none"}}, {"id": "3028", "name": "Kings Av before King Edward Tce", "parent_station": null, "location": {"lat": -35.30375, "lng": 149.135389}, "accessibility": {"wheelchair": "none"}}, {"id": "3168", "name": "Knox St at 2nd Higinbotham St", "parent_station": null, "location": {"lat": -35.239906, "lng": 149.155945}, "accessibility": {"wheelchair": "none"}}, {"id": "3169", "name": "Knox St after 1st Irvine St", "parent_station": null, "location": {"lat": -35.239514, "lng": 149.155714}, "accessibility": {"wheelchair": "none"}}, {"id": "3170", "name": "Knox St after 1st Higinbotham St", "parent_station": null, "location": {"lat": -35.242584, "lng": 149.158686}, "accessibility": {"wheelchair": "none"}}, {"id": "3171", "name": "Knox St after 2nd Irvine St", "parent_station": null, "location": {"lat": -35.242297, "lng": 149.158503}, "accessibility": {"wheelchair": "none"}}, {"id": "3250", "name": "Knox St opp 1st A'Beckett St", "parent_station": null, "location": {"lat": -35.234706, "lng": 149.151706}, "accessibility": {"wheelchair": "none"}}, {"id": "3251", "name": "Knox St after 2nd A'Beckett St", "parent_station": null, "location": {"lat": -35.234956, "lng": 149.151576}, "accessibility": {"wheelchair": "none"}}, {"id": "3252", "name": "Knox St before Piddington St", "parent_station": null, "location": {"lat": -35.232521, "lng": 149.153198}, "accessibility": {"wheelchair": "none"}}, {"id": "3253", "name": "Knox St after Molesworth St", "parent_station": null, "location": {"lat": -35.232348, "lng": 149.153228}, "accessibility": {"wheelchair": "none"}}, {"id": "3391", "name": "Knox St opp Majura Preschool", "parent_station": null, "location": {"lat": -35.237021, "lng": 149.152391}, "accessibility": {"wheelchair": "none"}}, {"id": "4036", "name": "Kaleen Village Maribyrnong Av", "parent_station": null, "location": {"lat": -35.219447, "lng": 149.102956}, "accessibility": {"wheelchair": "none"}}, {"id": "4089", "name": "Kingsford Smith Dr after Magrath Cr", "parent_station": null, "location": {"lat": -35.19779, "lng": 149.060598}, "accessibility": {"wheelchair": "none"}}, {"id": "4090", "name": "Kingsford Smith Dr opp Magrath Cr", "parent_station": null, "location": {"lat": -35.197509, "lng": 149.060592}, "accessibility": {"wheelchair": "none"}}, {"id": "4091", "name": "Kingsford Smith Dr opp Spence Shops", "parent_station": null, "location": {"lat": -35.194784, "lng": 149.060626}, "accessibility": {"wheelchair": "none"}}, {"id": "4191", "name": "Kingsford Smith Dr after Southern Cross Dr", "parent_station": null, "location": {"lat": -35.225773, "lng": 149.036328}, "accessibility": {"wheelchair": "none"}}, {"id": "4192", "name": "Kingsford Smith Dr before Southern Cross Dr", "parent_station": null, "location": {"lat": -35.226321, "lng": 149.036183}, "accessibility": {"wheelchair": "none"}}, {"id": "4193", "name": "Kingsford Smith Dr opp St Francis Xavier College", "parent_station": null, "location": {"lat": -35.224266, "lng": 149.037957}, "accessibility": {"wheelchair": "none"}}, {"id": "4195", "name": "Kingsford Smith Dr opp Krefft St", "parent_station": null, "location": {"lat": -35.219613, "lng": 149.041331}, "accessibility": {"wheelchair": "none"}}, {"id": "4196", "name": "Kingsford Smith Dr after Ginninderra Dr", "parent_station": null, "location": {"lat": -35.219065, "lng": 149.042245}, "accessibility": {"wheelchair": "none"}}, {"id": "4229", "name": "Kerrigan St after Shakespeare Cr", "parent_station": null, "location": {"lat": -35.193692, "lng": 149.040272}, "accessibility": {"wheelchair": "none"}}, {"id": "4230", "name": "Kerrigan St after Crowley Ct", "parent_station": null, "location": {"lat": -35.193772, "lng": 149.040123}, "accessibility": {"wheelchair": "none"}}, {"id": "4249", "name": "Kingsford Smith Dr after Alpen St", "parent_station": null, "location": {"lat": -35.203487, "lng": 149.058938}, "accessibility": {"wheelchair": "none"}}, {"id": "4250", "name": "Kingsford Smith Dr after Le Gallienne St", "parent_station": null, "location": {"lat": -35.203008, "lng": 149.057523}, "accessibility": {"wheelchair": "none"}}, {"id": "4251", "name": "Kingsford Smith Dr before Le Gallienne St", "parent_station": null, "location": {"lat": -35.202913, "lng": 149.056133}, "accessibility": {"wheelchair": "none"}}, {"id": "4252", "name": "Kingsford Smith Dr after 1st Bainton Cr", "parent_station": null, "location": {"lat": -35.202751, "lng": 149.055143}, "accessibility": {"wheelchair": "none"}}, {"id": "4253", "name": "Kingsford Smith Dr before Carandini St", "parent_station": null, "location": {"lat": -35.203261, "lng": 149.05226}, "accessibility": {"wheelchair": "none"}}, {"id": "4254", "name": "Kingsford Smith Dr after Spalding St", "parent_station": null, "location": {"lat": -35.203485, "lng": 149.05148}, "accessibility": {"wheelchair": "none"}}, {"id": "4255", "name": "Kingsford Smith Dr after Alfred Hill Dr", "parent_station": null, "location": {"lat": -35.20662, "lng": 149.048956}, "accessibility": {"wheelchair": "none"}}, {"id": "4256", "name": "Kingsford Smith Dr before Pattinson Cr", "parent_station": null, "location": {"lat": -35.206951, "lng": 149.04799}, "accessibility": {"wheelchair": "none"}}, {"id": "4258", "name": "Kingsford Smith Dr opp Melba Shops", "parent_station": null, "location": {"lat": -35.208192, "lng": 149.047372}, "accessibility": {"wheelchair": "none"}}, {"id": "4297", "name": "Kingsford Smith Dr after Findlay St", "parent_station": null, "location": {"lat": -35.236044, "lng": 149.032864}, "accessibility": {"wheelchair": "none"}}, {"id": "4298", "name": "Kingsford Smith Dr opp Findlay St", "parent_station": null, "location": {"lat": -35.236747, "lng": 149.032606}, "accessibility": {"wheelchair": "none"}}, {"id": "4320", "name": "Kingsford Smith School Hardwick Cr", "parent_station": null, "location": {"lat": -35.227247, "lng": 149.023141}, "accessibility": {"wheelchair": "none"}}, {"id": "4333", "name": "Kippax Interchange", "parent_station": null, "location": {"lat": -35.22243, "lng": 149.019477}, "accessibility": {"wheelchair": "none"}}, {"id": "4334", "name": "Kippax Terminus", "parent_station": null, "location": {"lat": -35.222482, "lng": 149.019328}, "accessibility": {"wheelchair": "none"}}, {"id": "4417", "name": "Krefft St before 1st Ennor Cr", "parent_station": null, "location": {"lat": -35.222262, "lng": 149.042754}, "accessibility": {"wheelchair": "none"}}, {"id": "4418", "name": "Krefft St opp 2nd Ennor Cr", "parent_station": null, "location": {"lat": -35.22228, "lng": 149.04262}, "accessibility": {"wheelchair": "none"}}, {"id": "4419", "name": "Krefft St opp Barnard Cct", "parent_station": null, "location": {"lat": -35.224712, "lng": 149.043643}, "accessibility": {"wheelchair": "none"}}, {"id": "4420", "name": "Krefft St before Barnard Cct", "parent_station": null, "location": {"lat": -35.224792, "lng": 149.043542}, "accessibility": {"wheelchair": "none"}}, {"id": "4421", "name": "Krefft St after 2nd Ennor Cr", "parent_station": null, "location": {"lat": -35.225843, "lng": 149.045799}, "accessibility": {"wheelchair": "none"}}, {"id": "4422", "name": "Krefft St opp 1st Ennor Cr", "parent_station": null, "location": {"lat": -35.225891, "lng": 149.045387}, "accessibility": {"wheelchair": "none"}}, {"id": "4423", "name": "Krefft St opp 1st Boswell Cr", "parent_station": null, "location": {"lat": -35.2254, "lng": 149.048432}, "accessibility": {"wheelchair": "none"}}, {"id": "4424", "name": "Krefft St before 2nd Boswell Cr", "parent_station": null, "location": {"lat": -35.225543, "lng": 149.048444}, "accessibility": {"wheelchair": "none"}}, {"id": "4426", "name": "Krefft St opp Florey PS", "parent_station": null, "location": {"lat": -35.225876, "lng": 149.051219}, "accessibility": {"wheelchair": "none"}}, {"id": "4570", "name": "Kingsford Smith Dr after Companion Cr", "parent_station": null, "location": {"lat": -35.213285, "lng": 149.046424}, "accessibility": {"wheelchair": "none"}}, {"id": "4634", "name": "Kerrigan St before Douglas Waterhouse Dr", "parent_station": null, "location": {"lat": -35.189139, "lng": 149.022064}, "accessibility": {"wheelchair": "none"}}, {"id": "4635", "name": "Kerrigan St opp Traeger St", "parent_station": null, "location": {"lat": -35.189198, "lng": 149.026525}, "accessibility": {"wheelchair": "none"}}, {"id": "4687", "name": "Kelleway Av opp Holy Spirit PS", "parent_station": null, "location": {"lat": -35.180634, "lng": 149.101753}, "accessibility": {"wheelchair": "none"}}, {"id": "4773", "name": "Kosciuszko Av before Gungahlin Dr", "parent_station": null, "location": {"lat": -35.193753, "lng": 149.126941}, "accessibility": {"wheelchair": "none"}}, {"id": "4774", "name": "Kosciuszko Av opp Redcliffe St", "parent_station": null, "location": {"lat": -35.194948, "lng": 149.12519}, "accessibility": {"wheelchair": "none"}}, {"id": "4775", "name": "Kosciuszko Av before Mainwaring Rich Cct", "parent_station": null, "location": {"lat": -35.194618, "lng": 149.125458}, "accessibility": {"wheelchair": "none"}}, {"id": "4776", "name": "Kosciuszko Av before Bollard St", "parent_station": null, "location": {"lat": -35.196326, "lng": 149.124427}, "accessibility": {"wheelchair": "none"}}, {"id": "4777", "name": "Kosciuszko Av before Redcliffe St", "parent_station": null, "location": {"lat": -35.196258, "lng": 149.124329}, "accessibility": {"wheelchair": "none"}}, {"id": "4778", "name": "Kosciuszko Av after Bollard St", "parent_station": null, "location": {"lat": -35.197849, "lng": 149.12336}, "accessibility": {"wheelchair": "none"}}, {"id": "4779", "name": "Kosciuszko Av opp Bollard St", "parent_station": null, "location": {"lat": -35.197692, "lng": 149.123505}, "accessibility": {"wheelchair": "none"}}, {"id": "4781", "name": "Koscuiszko Av after Palmerston Shops", "parent_station": null, "location": {"lat": -35.19768, "lng": 149.119284}, "accessibility": {"wheelchair": "none"}}, {"id": "4782", "name": "Kosciuszko Av before Grampians St", "parent_station": null, "location": {"lat": -35.196147, "lng": 149.11598}, "accessibility": {"wheelchair": "none"}}, {"id": "4783", "name": "Kosciuszko Av before Tiptree Cr", "parent_station": null, "location": {"lat": -35.196147, "lng": 149.116123}, "accessibility": {"wheelchair": "none"}}, {"id": "4784", "name": "Kosciuszko Av after Bimberi Cr", "parent_station": null, "location": {"lat": -35.193962, "lng": 149.114444}, "accessibility": {"wheelchair": "none"}}, {"id": "4785", "name": "Kosciuszko Av opp Brinkley Cct", "parent_station": null, "location": {"lat": -35.193749, "lng": 149.114512}, "accessibility": {"wheelchair": "none"}}, {"id": "4786", "name": "Kosciuszko Av before Burrowa St", "parent_station": null, "location": {"lat": -35.192333, "lng": 149.114625}, "accessibility": {"wheelchair": "none"}}, {"id": "4787", "name": "Kosciuszko Av before 2nd Freeling Cct", "parent_station": null, "location": {"lat": -35.192223, "lng": 149.114747}, "accessibility": {"wheelchair": "none"}}, {"id": "4788", "name": "Kosciuszko Av after 2nd Sentry Cr", "parent_station": null, "location": {"lat": -35.190581, "lng": 149.118015}, "accessibility": {"wheelchair": "none"}}, {"id": "4789", "name": "Kosciuszko Av after Gingera St", "parent_station": null, "location": {"lat": -35.190698, "lng": 149.117768}, "accessibility": {"wheelchair": "none"}}, {"id": "4790", "name": "Kosciuszko Av after 2nd Buller Cr", "parent_station": null, "location": {"lat": -35.189452, "lng": 149.120827}, "accessibility": {"wheelchair": "none"}}, {"id": "4791", "name": "Kosciuszko Av after Amarina St", "parent_station": null, "location": {"lat": -35.189672, "lng": 149.120664}, "accessibility": {"wheelchair": "none"}}, {"id": "4829", "name": "Koscuiszko Av opp Palmerston Shops", "parent_station": null, "location": {"lat": -35.197781, "lng": 149.118819}, "accessibility": {"wheelchair": "none"}}, {"id": "4839", "name": "Kingsford Smith Dr opp Companion Cr", "parent_station": null, "location": {"lat": -35.212405, "lng": 149.047783}, "accessibility": {"wheelchair": "none"}}, {"id": "4880", "name": "Kinsella St after 1st Nicholas St", "parent_station": null, "location": {"lat": -35.235934, "lng": 149.027996}, "accessibility": {"wheelchair": "none"}}, {"id": "4881", "name": "Kinsella St before Findlay St", "parent_station": null, "location": {"lat": -35.235176, "lng": 149.028403}, "accessibility": {"wheelchair": "none"}}, {"id": "4882", "name": "Kinsella St before 2nd Nicholas St", "parent_station": null, "location": {"lat": -35.237903, "lng": 149.026385}, "accessibility": {"wheelchair": "none"}}, {"id": "4883", "name": "Kinsella St after Drake Brockman Dr", "parent_station": null, "location": {"lat": -35.237959, "lng": 149.026142}, "accessibility": {"wheelchair": "none"}}, {"id": "4899", "name": "Kerrigan St before Traeger St", "parent_station": null, "location": {"lat": -35.189241, "lng": 149.026405}, "accessibility": {"wheelchair": "none"}}, {"id": "4980", "name": "Kerrigan St after Dunnett St", "parent_station": null, "location": {"lat": -35.191624, "lng": 149.02836}, "accessibility": {"wheelchair": "none"}}, {"id": "4981", "name": "Kerrigan St after Branson St", "parent_station": null, "location": {"lat": -35.191696, "lng": 149.028468}, "accessibility": {"wheelchair": "none"}}, {"id": "4991", "name": "Kingsford Smith Dr before Castieau St", "parent_station": null, "location": {"lat": -35.231601, "lng": 149.03417}, "accessibility": {"wheelchair": "none"}}, {"id": "5022", "name": "Kingsford Smith Dr after Wirraway Cr", "parent_station": null, "location": {"lat": -35.231947, "lng": 149.034461}, "accessibility": {"wheelchair": "none"}}, {"id": "5026", "name": "Kerrigan St opp Douglas Waterhouse Dr", "parent_station": null, "location": {"lat": -35.189391, "lng": 149.021711}, "accessibility": {"wheelchair": "none"}}, {"id": "5072", "name": "Kelleway Av before Lexcen Av", "parent_station": null, "location": {"lat": -35.183399, "lng": 149.099538}, "accessibility": {"wheelchair": "none"}}, {"id": "5073", "name": "Kelleway Av after Lexcen Av", "parent_station": null, "location": {"lat": -35.183279, "lng": 149.099546}, "accessibility": {"wheelchair": "none"}}, {"id": "5080", "name": "Katherine Av opp Auburn St", "parent_station": null, "location": {"lat": -35.16808, "lng": 149.127998}, "accessibility": {"wheelchair": "none"}}, {"id": "5081", "name": "Katherine Av before Proserpine Cct", "parent_station": null, "location": {"lat": -35.169155, "lng": 149.129407}, "accessibility": {"wheelchair": "none"}}, {"id": "5082", "name": "Katherine Av opp Cooloola St", "parent_station": null, "location": {"lat": -35.169461, "lng": 149.131827}, "accessibility": {"wheelchair": "none"}}, {"id": "5101", "name": "Kerrigan St after Polilight St", "parent_station": null, "location": {"lat": -35.193721, "lng": 149.031334}, "accessibility": {"wheelchair": "none"}}, {"id": "5102", "name": "Kerrigan St before Dunnett St", "parent_station": null, "location": {"lat": -35.193759, "lng": 149.03123}, "accessibility": {"wheelchair": "none"}}, {"id": "5174", "name": "Kingsford Smith Dr before Ginninderra Dr", "parent_station": null, "location": {"lat": -35.214779, "lng": 149.045702}, "accessibility": {"wheelchair": "none"}}, {"id": "6001", "name": "Katherine Av opp Clarendon St", "parent_station": null, "location": {"lat": -35.169912, "lng": 149.13443}, "accessibility": {"wheelchair": "none"}}, {"id": "6032", "name": "Katherine Av before Cooloola St", "parent_station": null, "location": {"lat": -35.169542, "lng": 149.131802}, "accessibility": {"wheelchair": "none"}}, {"id": "6033", "name": "Katherine Av before Clarendon St", "parent_station": null, "location": {"lat": -35.170167, "lng": 149.134901}, "accessibility": {"wheelchair": "none"}}, {"id": "6034", "name": "Katherine Av after 2nd Carstairs Cct", "parent_station": null, "location": {"lat": -35.169593, "lng": 149.13785}, "accessibility": {"wheelchair": "none"}}, {"id": "6035", "name": "Katherine Av before 1st Benaroon Cct", "parent_station": null, "location": {"lat": -35.169806, "lng": 149.137682}, "accessibility": {"wheelchair": "none"}}, {"id": "6045", "name": "Kerrigan St after Lance Hill Av", "parent_station": null, "location": {"lat": -35.193226, "lng": 149.018717}, "accessibility": {"wheelchair": "none"}}, {"id": "6046", "name": "Kerrigan St before Lance Hill Av", "parent_station": null, "location": {"lat": -35.193116, "lng": 149.018833}, "accessibility": {"wheelchair": "none"}}, {"id": "6048", "name": "Katherine Av before Shoalhaven Av", "parent_station": null, "location": {"lat": -35.167853, "lng": 149.127872}, "accessibility": {"wheelchair": "none"}}, {"id": "6049", "name": "Katherine Av before Timboram St", "parent_station": null, "location": {"lat": -35.169272, "lng": 149.129446}, "accessibility": {"wheelchair": "none"}}, {"id": "6110", "name": "Kingslande Pde opp Casey Market Town", "parent_station": null, "location": {"lat": -35.174791, "lng": 149.096054}, "accessibility": {"wheelchair": "none"}}, {"id": "6154", "name": "Katherine Av opp Amaroo Shops", "parent_station": null, "location": {"lat": -35.164467, "lng": 149.130583}, "accessibility": {"wheelchair": "none"}}, {"id": "6156", "name": "Kaleen PS School Grounds SSO", "parent_station": null, "location": {"lat": -35.224637, "lng": 149.113164}, "accessibility": {"wheelchair": "none"}}]