[{"id": "600", "name": "O'Hanlon Pl after Gold Creek Rd", "parent_station": null, "location": {"lat": -35.192122, "lng": 149.08597}, "accessibility": {"wheelchair": "none"}}, {"id": "601", "name": "O'Hanlon Pl before Gold Creek Rd", "parent_station": null, "location": {"lat": -35.192143, "lng": 149.08607}, "accessibility": {"wheelchair": "none"}}, {"id": "1125", "name": "69 Deamer Cr", "parent_station": null, "location": {"lat": -35.431494, "lng": 149.127065}, "accessibility": {"wheelchair": "none"}}, {"id": "1239", "name": "61 Lewis Luxton Av", "parent_station": null, "location": {"lat": -35.448733, "lng": 149.087143}, "accessibility": {"wheelchair": "none"}}, {"id": "1544", "name": "64 Hambidge Cr", "parent_station": null, "location": {"lat": -35.418097, "lng": 149.127335}, "accessibility": {"wheelchair": "none"}}, {"id": "4263", "name": "67 Verbrugghen St", "parent_station": null, "location": {"lat": -35.213493, "lng": 149.054367}, "accessibility": {"wheelchair": "none"}}, {"id": "6000", "name": "Amaroo School Burdekin Av", "parent_station": null, "location": {"lat": -35.16561, "lng": 149.12735}, "accessibility": {"wheelchair": "none"}}, {"id": "6001", "name": "Katherine Av opp Clarendon St", "parent_station": null, "location": {"lat": -35.169912, "lng": 149.13443}, "accessibility": {"wheelchair": "none"}}, {"id": "6005", "name": "Jane Sutherland St after Tom Roberts Av", "parent_station": null, "location": {"lat": -35.467028, "lng": 149.105954}, "accessibility": {"wheelchair": "none"}}, {"id": "6006", "name": "Well Station Dr before Kings Canyon St", "parent_station": null, "location": {"lat": -35.20962, "lng": 149.155529}, "accessibility": {"wheelchair": "none"}}, {"id": "6007", "name": "Well Station Dr opp Kings Canyon St", "parent_station": null, "location": {"lat": -35.20974, "lng": 149.15528}, "accessibility": {"wheelchair": "none"}}, {"id": "6008", "name": "Well Station Dr after Albatross Cr", "parent_station": null, "location": {"lat": -35.20528, "lng": 149.163459}, "accessibility": {"wheelchair": "none"}}, {"id": "6009", "name": "Well Station Dr opp Albatross Cr", "parent_station": null, "location": {"lat": -35.205541, "lng": 149.163469}, "accessibility": {"wheelchair": "none"}}, {"id": "6013", "name": "Templestowe Av before Morrison St", "parent_station": null, "location": {"lat": -35.465923, "lng": 149.110891}, "accessibility": {"wheelchair": "none"}}, {"id": "6014", "name": "Templestowe Av after Jane Sutherland St", "parent_station": null, "location": {"lat": -35.465766, "lng": 149.111085}, "accessibility": {"wheelchair": "none"}}, {"id": "6015", "name": "Templestowe Av after 2nd Montefiore Cr", "parent_station": null, "location": {"lat": -35.466455, "lng": 149.108535}, "accessibility": {"wheelchair": "none"}}, {"id": "6016", "name": "Templestowe Av before Humphrey St", "parent_station": null, "location": {"lat": -35.466517, "lng": 149.108445}, "accessibility": {"wheelchair": "none"}}, {"id": "6018", "name": "Templestowe Av before Tom Roberts Av", "parent_station": null, "location": {"lat": -35.465489, "lng": 149.106581}, "accessibility": {"wheelchair": "none"}}, {"id": "6024", "name": "Gundaroo Dr after Hollingsworth St", "parent_station": null, "location": {"lat": -35.180842, "lng": 149.140597}, "accessibility": {"wheelchair": "none"}}, {"id": "6025", "name": "Gundaroo Dr before Pallin St", "parent_station": null, "location": {"lat": -35.181016, "lng": 149.140443}, "accessibility": {"wheelchair": "none"}}, {"id": "6026", "name": "Gundaroo Dr before Hollingsworth St", "parent_station": null, "location": {"lat": -35.180638, "lng": 149.138532}, "accessibility": {"wheelchair": "none"}}, {"id": "6027", "name": "Gundaroo Dr after Pallin St", "parent_station": null, "location": {"lat": -35.180792, "lng": 149.138466}, "accessibility": {"wheelchair": "none"}}, {"id": "6028", "name": "Gundaroo Dr before Nellie Hamilton Av", "parent_station": null, "location": {"lat": -35.180153, "lng": 149.135592}, "accessibility": {"wheelchair": "none"}}, {"id": "6029", "name": "Gundaroo Dr after Gungahlin Pl", "parent_station": null, "location": {"lat": -35.180275, "lng": 149.135451}, "accessibility": {"wheelchair": "none"}}, {"id": "6030", "name": "Gundaroo Dr before Nari St", "parent_station": null, "location": {"lat": -35.183579, "lng": 149.124761}, "accessibility": {"wheelchair": "none"}}, {"id": "6031", "name": "Gundaroo Dr after Ginn St", "parent_station": null, "location": {"lat": -35.184786, "lng": 149.122715}, "accessibility": {"wheelchair": "none"}}, {"id": "6032", "name": "Katherine Av before Cooloola St", "parent_station": null, "location": {"lat": -35.169542, "lng": 149.131802}, "accessibility": {"wheelchair": "none"}}, {"id": "6033", "name": "Katherine Av before Clarendon St", "parent_station": null, "location": {"lat": -35.170167, "lng": 149.134901}, "accessibility": {"wheelchair": "none"}}, {"id": "6034", "name": "Katherine Av after 2nd Carstairs Cct", "parent_station": null, "location": {"lat": -35.169593, "lng": 149.13785}, "accessibility": {"wheelchair": "none"}}, {"id": "6035", "name": "Katherine Av before 1st Benaroon Cct", "parent_station": null, "location": {"lat": -35.169806, "lng": 149.137682}, "accessibility": {"wheelchair": "none"}}, {"id": "6038", "name": "Horse Park Dr after Gundaroo Dr", "parent_station": null, "location": {"lat": -35.175771, "lng": 149.139696}, "accessibility": {"wheelchair": "none"}}, {"id": "6039", "name": "Horse Park Dr before David Walsh Av", "parent_station": null, "location": {"lat": -35.174589, "lng": 149.139805}, "accessibility": {"wheelchair": "none"}}, {"id": "6045", "name": "Kerrigan St after Lance Hill Av", "parent_station": null, "location": {"lat": -35.193226, "lng": 149.018717}, "accessibility": {"wheelchair": "none"}}, {"id": "6046", "name": "Kerrigan St before Lance Hill Av", "parent_station": null, "location": {"lat": -35.193116, "lng": 149.018833}, "accessibility": {"wheelchair": "none"}}, {"id": "6048", "name": "Katherine Av before Shoalhaven Av", "parent_station": null, "location": {"lat": -35.167853, "lng": 149.127872}, "accessibility": {"wheelchair": "none"}}, {"id": "6049", "name": "Katherine Av before Timboram St", "parent_station": null, "location": {"lat": -35.169272, "lng": 149.129446}, "accessibility": {"wheelchair": "none"}}, {"id": "6052", "name": "Cultivation St before Angora St", "parent_station": null, "location": {"lat": -35.200195, "lng": 149.158347}, "accessibility": {"wheelchair": "none"}}, {"id": "6053", "name": "Cultivation St after Dimby St", "parent_station": null, "location": {"lat": -35.200681, "lng": 149.157932}, "accessibility": {"wheelchair": "none"}}, {"id": "6054", "name": "Cultivation St before Tanami St", "parent_station": null, "location": {"lat": -35.198599, "lng": 149.159489}, "accessibility": {"wheelchair": "none"}}, {"id": "6055", "name": "Cultivation St after Tanami St", "parent_station": null, "location": {"lat": -35.19852, "lng": 149.15942}, "accessibility": {"wheelchair": "none"}}, {"id": "6056", "name": "Cultivation St before Granites St", "parent_station": null, "location": {"lat": -35.196338, "lng": 149.160287}, "accessibility": {"wheelchair": "none"}}, {"id": "6057", "name": "Cultivation St opp Granites St", "parent_station": null, "location": {"lat": -35.196452, "lng": 149.160208}, "accessibility": {"wheelchair": "none"}}, {"id": "6058", "name": "Jenolan St before Cultivation St", "parent_station": null, "location": {"lat": -35.195551, "lng": 149.158305}, "accessibility": {"wheelchair": "none"}}, {"id": "6059", "name": "Jenolan St after Cultivation St", "parent_station": null, "location": {"lat": -35.195413, "lng": 149.1582}, "accessibility": {"wheelchair": "none"}}, {"id": "6060", "name": "Mapleton Av opp Nimbera St", "parent_station": null, "location": {"lat": -35.194806, "lng": 149.159278}, "accessibility": {"wheelchair": "none"}}, {"id": "6061", "name": "Mapleton Av after Nimbera St", "parent_station": null, "location": {"lat": -35.1947, "lng": 149.159307}, "accessibility": {"wheelchair": "none"}}, {"id": "6069", "name": "Anthony Rolfe Av after DeBortoli St", "parent_station": null, "location": {"lat": -35.186391, "lng": 149.152152}, "accessibility": {"wheelchair": "none"}}, {"id": "6070", "name": "Nullarbor Av opp Phantom St", "parent_station": null, "location": {"lat": -35.200872, "lng": 149.161435}, "accessibility": {"wheelchair": "none"}}, {"id": "6071", "name": "Nullarbor Av after Cape York St", "parent_station": null, "location": {"lat": -35.201326, "lng": 149.163061}, "accessibility": {"wheelchair": "none"}}, {"id": "6075", "name": "Grampians St before Clear St", "parent_station": null, "location": {"lat": -35.197955, "lng": 149.114545}, "accessibility": {"wheelchair": "none"}}, {"id": "6076", "name": "Grampians St opp Clear St", "parent_station": null, "location": {"lat": -35.198273, "lng": 149.114207}, "accessibility": {"wheelchair": "none"}}, {"id": "6078", "name": "Hoskins St after Oodgeroo Av", "parent_station": null, "location": {"lat": -35.202612, "lng": 149.139937}, "accessibility": {"wheelchair": "none"}}, {"id": "6079", "name": "Hoskins St before Oodgeroo Av", "parent_station": null, "location": {"lat": -35.202451, "lng": 149.139847}, "accessibility": {"wheelchair": "none"}}, {"id": "6080", "name": "Hoskins St after Well Station Dr", "parent_station": null, "location": {"lat": -35.205577, "lng": 149.139295}, "accessibility": {"wheelchair": "none"}}, {"id": "6081", "name": "Hoskins St before Daniels St", "parent_station": null, "location": {"lat": -35.204822, "lng": 149.139544}, "accessibility": {"wheelchair": "none"}}, {"id": "6088", "name": "Amy Ackman St before Francis Forde St", "parent_station": null, "location": {"lat": -35.171081, "lng": 149.141903}, "accessibility": {"wheelchair": "none"}}, {"id": "6089", "name": "Amy Ackman St after Francis Forde St", "parent_station": null, "location": {"lat": -35.171053, "lng": 149.14178}, "accessibility": {"wheelchair": "none"}}, {"id": "6090", "name": "Amy Ackman St before Quinane Av", "parent_station": null, "location": {"lat": -35.166279, "lng": 149.145078}, "accessibility": {"wheelchair": "none"}}, {"id": "6091", "name": "Amy Ackman St after Helen Leonard Cr", "parent_station": null, "location": {"lat": -35.166789, "lng": 149.144392}, "accessibility": {"wheelchair": "none"}}, {"id": "6092", "name": "Well Station Dr after Flemington Rd", "parent_station": null, "location": {"lat": -35.208676, "lng": 149.148401}, "accessibility": {"wheelchair": "none"}}, {"id": "6093", "name": "Well Station Dr before Flemington Rd", "parent_station": null, "location": {"lat": -35.208848, "lng": 149.148755}, "accessibility": {"wheelchair": "none"}}, {"id": "6094", "name": "Robin Boyd Cr before Grenfell Av", "parent_station": null, "location": {"lat": -35.147415, "lng": 149.104314}, "accessibility": {"wheelchair": "none"}}, {"id": "6095", "name": "Robin Boyd Cr before Devenish St", "parent_station": null, "location": {"lat": -35.147292, "lng": 149.104504}, "accessibility": {"wheelchair": "none"}}, {"id": "6096", "name": "Robin Boyd Cr opp 137", "parent_station": null, "location": {"lat": -35.146708, "lng": 149.098562}, "accessibility": {"wheelchair": "none"}}, {"id": "6097", "name": "137 Robin Boyd Cr", "parent_station": null, "location": {"lat": -35.146514, "lng": 149.098535}, "accessibility": {"wheelchair": "none"}}, {"id": "6098", "name": "Robin Boyd Cr after Cullis Hill Tce", "parent_station": null, "location": {"lat": -35.150892, "lng": 149.098258}, "accessibility": {"wheelchair": "none"}}, {"id": "6099", "name": "Robin Boyd Crescent after Ken Herde Cr", "parent_station": null, "location": {"lat": -35.151174, "lng": 149.098667}, "accessibility": {"wheelchair": "none"}}, {"id": "6100", "name": "Redruth St opp Crace Shops", "parent_station": null, "location": {"lat": -35.201944, "lng": 149.106943}, "accessibility": {"wheelchair": "none"}}, {"id": "6101", "name": "Bernard Heinze Av after Gussey St", "parent_station": null, "location": {"lat": -35.157962, "lng": 149.123381}, "accessibility": {"wheelchair": "none"}}, {"id": "6102", "name": "Bernard Heinze Av before Tycho St", "parent_station": null, "location": {"lat": -35.157867, "lng": 149.122249}, "accessibility": {"wheelchair": "none"}}, {"id": "6103", "name": "Bernard Heinze Av after Yidaki Way", "parent_station": null, "location": {"lat": -35.1575, "lng": 149.11814}, "accessibility": {"wheelchair": "none"}}, {"id": "6104", "name": "Bernard Heinze Av before Crackajack Way", "parent_station": null, "location": {"lat": -35.15752, "lng": 149.117899}, "accessibility": {"wheelchair": "none"}}, {"id": "6105", "name": "Mirrabei Dr after Yamma Way", "parent_station": null, "location": {"lat": -35.155803, "lng": 149.11438}, "accessibility": {"wheelchair": "none"}}, {"id": "6106", "name": "Mirrabei Dr after O'Keefe Av", "parent_station": null, "location": {"lat": -35.15471, "lng": 149.114931}, "accessibility": {"wheelchair": "none"}}, {"id": "6107", "name": "Mirrabei Dr after Len Waters St", "parent_station": null, "location": {"lat": -35.158757, "lng": 149.113172}, "accessibility": {"wheelchair": "none"}}, {"id": "6108", "name": "Mirrabei Dr before Len Waters St", "parent_station": null, "location": {"lat": -35.158955, "lng": 149.11326}, "accessibility": {"wheelchair": "none"}}, {"id": "6109", "name": "Casey Market Town Kingsland Pde", "parent_station": null, "location": {"lat": -35.17378, "lng": 149.096479}, "accessibility": {"wheelchair": "none"}}, {"id": "6110", "name": "Kingslande Pde opp Casey Market Town", "parent_station": null, "location": {"lat": -35.174791, "lng": 149.096054}, "accessibility": {"wheelchair": "none"}}, {"id": "6111", "name": "Crackajack Way before Bandstand St", "parent_station": null, "location": {"lat": -35.15947, "lng": 149.117599}, "accessibility": {"wheelchair": "none"}}, {"id": "6112", "name": "Crackajack Way opp Bandstand St", "parent_station": null, "location": {"lat": -35.16007, "lng": 149.11819}, "accessibility": {"wheelchair": "none"}}, {"id": "6113", "name": "Margaret Hendry School Sutherland Cr", "parent_station": null, "location": {"lat": -35.151599, "lng": 149.114478}, "accessibility": {"wheelchair": "none"}}, {"id": "6114", "name": "Sutherland Cr opp Margaret Hendry School", "parent_station": null, "location": {"lat": -35.150882, "lng": 149.114724}, "accessibility": {"wheelchair": "none"}}, {"id": "6115", "name": "Sutherland Cr opp Chadwick St", "parent_station": null, "location": {"lat": -35.148553, "lng": 149.112316}, "accessibility": {"wheelchair": "none"}}, {"id": "6116", "name": "Sutherland Cr after Chadwick St", "parent_station": null, "location": {"lat": -35.148476, "lng": 149.113197}, "accessibility": {"wheelchair": "none"}}, {"id": "6117", "name": "Sutherland Cr opp Bischoff St", "parent_station": null, "location": {"lat": -35.149293, "lng": 149.108768}, "accessibility": {"wheelchair": "none"}}, {"id": "6118", "name": "Sutherland Cr before Bischoff St", "parent_station": null, "location": {"lat": -35.149104, "lng": 149.108649}, "accessibility": {"wheelchair": "none"}}, {"id": "6119", "name": "Grenfell Av before Morath St", "parent_station": null, "location": {"lat": -35.15319, "lng": 149.1045}, "accessibility": {"wheelchair": "none"}}, {"id": "6120", "name": "Grenfell Av after Holdford St", "parent_station": null, "location": {"lat": -35.153439, "lng": 149.1048}, "accessibility": {"wheelchair": "none"}}, {"id": "6121", "name": "Horse Park Dr before Burrumarra Av", "parent_station": null, "location": {"lat": -35.157162, "lng": 149.103772}, "accessibility": {"wheelchair": "none"}}, {"id": "6122", "name": "Horse Park Dr before Grenfell Av", "parent_station": null, "location": {"lat": -35.156837, "lng": 149.103952}, "accessibility": {"wheelchair": "none"}}, {"id": "6127", "name": "Horse Park Dr opp Katherine Av", "parent_station": null, "location": {"lat": -35.169984, "lng": 149.139125}, "accessibility": {"wheelchair": "none"}}, {"id": "6128", "name": "Horse Park Dr before Roden Cutler Dr", "parent_station": null, "location": {"lat": -35.162708, "lng": 149.129568}, "accessibility": {"wheelchair": "none"}}, {"id": "6129", "name": "Amaroo School Horse Park Dr", "parent_station": null, "location": {"lat": -35.162945, "lng": 149.12944}, "accessibility": {"wheelchair": "none"}}, {"id": "6130", "name": "The Valley Av opp Gungahlin Leisure Centre", "parent_station": null, "location": {"lat": -35.186881, "lng": 149.12961}, "accessibility": {"wheelchair": "none"}}, {"id": "6131", "name": "Gungahlin Leisure Centre The Valley Av", "parent_station": null, "location": {"lat": -35.186798, "lng": 149.129603}, "accessibility": {"wheelchair": "none"}}, {"id": "6132", "name": "The Valley Av after Warwick St", "parent_station": null, "location": {"lat": -35.186475, "lng": 149.12658}, "accessibility": {"wheelchair": "none"}}, {"id": "6133", "name": "The Valley Av before Warwick St", "parent_station": null, "location": {"lat": -35.186416, "lng": 149.126662}, "accessibility": {"wheelchair": "none"}}, {"id": "6134", "name": "Crace Shops Redruth St", "parent_station": null, "location": {"lat": -35.202087, "lng": 149.107084}, "accessibility": {"wheelchair": "none"}}, {"id": "6140", "name": "Anthony Rolfe Av at Hammer St", "parent_station": null, "location": {"lat": -35.185289, "lng": 149.145381}, "accessibility": {"wheelchair": "none"}}, {"id": "6141", "name": "Anthony Rolfe Av after Eva West St", "parent_station": null, "location": {"lat": -35.185027, "lng": 149.145652}, "accessibility": {"wheelchair": "none"}}, {"id": "6142", "name": "Anthony Rolfe Av after Wizard St", "parent_station": null, "location": {"lat": -35.185901, "lng": 149.149099}, "accessibility": {"wheelchair": "none"}}, {"id": "6145", "name": "Anthony Rolfe Av before Rosanna St", "parent_station": null, "location": {"lat": -35.185643, "lng": 149.149372}, "accessibility": {"wheelchair": "none"}}, {"id": "6148", "name": "Langtree Cr opp 1st Cocoparra Cr", "parent_station": null, "location": {"lat": -35.205259, "lng": 149.109677}, "accessibility": {"wheelchair": "none"}}, {"id": "6149", "name": "Langtree Cr after 2nd Cocoparra Cr", "parent_station": null, "location": {"lat": -35.205278, "lng": 149.109019}, "accessibility": {"wheelchair": "none"}}, {"id": "6152", "name": "Langtree Cr after Fergus St", "parent_station": null, "location": {"lat": -35.203968, "lng": 149.114249}, "accessibility": {"wheelchair": "none"}}, {"id": "6154", "name": "Katherine Av opp Amaroo Shops", "parent_station": null, "location": {"lat": -35.164467, "lng": 149.130583}, "accessibility": {"wheelchair": "none"}}, {"id": "6155", "name": "Bimberi Centre", "parent_station": null, "location": {"lat": -35.22263, "lng": 149.156139}, "accessibility": {"wheelchair": "none"}}, {"id": "6156", "name": "Kaleen PS School Grounds SSO", "parent_station": null, "location": {"lat": -35.224637, "lng": 149.113164}, "accessibility": {"wheelchair": "none"}}, {"id": "6157", "name": "Langtree Cr after Geegeela St", "parent_station": null, "location": {"lat": -35.205044, "lng": 149.113904}, "accessibility": {"wheelchair": "none"}}, {"id": "6165", "name": "Burgmann Anglican School Forde Campus", "parent_station": null, "location": {"lat": -35.170833, "lng": 149.143845}, "accessibility": {"wheelchair": "none"}}, {"id": "6175", "name": "Amaroo Shops Katherine Av", "parent_station": null, "location": {"lat": -35.16514, "lng": 149.130674}, "accessibility": {"wheelchair": "none"}}, {"id": "6180", "name": "Oodgeroo Av before Kilmeny Cl", "parent_station": null, "location": {"lat": -35.198699, "lng": 149.144222}, "accessibility": {"wheelchair": "none"}}, {"id": "6181", "name": "Oodgeroo Av after Nullarbor Av", "parent_station": null, "location": {"lat": -35.198979, "lng": 149.14394}, "accessibility": {"wheelchair": "none"}}, {"id": "6182", "name": "Manning Clark Cr before Whitington St", "parent_station": null, "location": {"lat": -35.193133, "lng": 149.14573}, "accessibility": {"wheelchair": "none"}}, {"id": "6183", "name": "Manning Clark Cr before Alice Crist St", "parent_station": null, "location": {"lat": -35.193042, "lng": 149.14597}, "accessibility": {"wheelchair": "none"}}, {"id": "6184", "name": "Manning Clark Cr opp Barbara Jefferis St", "parent_station": null, "location": {"lat": -35.189994, "lng": 149.143399}, "accessibility": {"wheelchair": "none"}}, {"id": "6185", "name": "Manning Clark Cr after Barbara Jefferis St", "parent_station": null, "location": {"lat": -35.189996, "lng": 149.143548}, "accessibility": {"wheelchair": "none"}}, {"id": "6186", "name": "Oodgeroo Av before Brissenden St", "parent_station": null, "location": {"lat": -35.200275, "lng": 149.141536}, "accessibility": {"wheelchair": "none"}}, {"id": "6187", "name": "Oogeroo Av after Rolls St", "parent_station": null, "location": {"lat": -35.200395, "lng": 149.141597}, "accessibility": {"wheelchair": "none"}}, {"id": "6190", "name": "Castleton Cr before Finlay Pl", "parent_station": null, "location": {"lat": -35.411696, "lng": 149.113881}, "accessibility": {"wheelchair": "none"}}, {"id": "6191", "name": "Oodgeroo Av before Marie Pitt St", "parent_station": null, "location": {"lat": -35.196112, "lng": 149.145707}, "accessibility": {"wheelchair": "none"}}, {"id": "6192", "name": "Oodgeroo Av before Jocelyn Brown St", "parent_station": null, "location": {"lat": -35.196656, "lng": 149.145885}, "accessibility": {"wheelchair": "none"}}, {"id": "6193", "name": "Anthony Rolfe Av after Horse Park Dr", "parent_station": null, "location": {"lat": -35.185036, "lng": 149.155123}, "accessibility": {"wheelchair": "none"}}, {"id": "6199", "name": "Bettong Av before Dragon St", "parent_station": null, "location": {"lat": -35.193113, "lng": 149.163538}, "accessibility": {"wheelchair": "none"}}, {"id": "6200", "name": "Bettong Av before Hawksbill St", "parent_station": null, "location": {"lat": -35.192591, "lng": 149.16399}, "accessibility": {"wheelchair": "none"}}, {"id": "6201", "name": "Bettong Av opp Shingleback St", "parent_station": null, "location": {"lat": -35.187479, "lng": 149.162}, "accessibility": {"wheelchair": "none"}}, {"id": "6202", "name": "Bettong Av after Shingleback St", "parent_station": null, "location": {"lat": -35.18767, "lng": 149.16278}, "accessibility": {"wheelchair": "none"}}, {"id": "6203", "name": "Bettong Av before Gecko Way", "parent_station": null, "location": {"lat": -35.183306, "lng": 149.158707}, "accessibility": {"wheelchair": "none"}}, {"id": "6204", "name": "Bettong Av after Pipistrelle St", "parent_station": null, "location": {"lat": -35.183203, "lng": 149.159248}, "accessibility": {"wheelchair": "none"}}, {"id": "6304", "name": "Overall Av after Shedden St", "parent_station": null, "location": {"lat": -35.171076, "lng": 149.09475}, "accessibility": {"wheelchair": "none"}}, {"id": "6305", "name": "Overall Av after Kingsland Pde", "parent_station": null, "location": {"lat": -35.171245, "lng": 149.095491}, "accessibility": {"wheelchair": "none"}}, {"id": "6306", "name": "Overall Av opp Tippett St", "parent_station": null, "location": {"lat": -35.172424, "lng": 149.091788}, "accessibility": {"wheelchair": "none"}}, {"id": "6307", "name": "Overall Av before Tippett St", "parent_station": null, "location": {"lat": -35.172561, "lng": 149.091868}, "accessibility": {"wheelchair": "none"}}, {"id": "6308", "name": "Overall Av after Powley St", "parent_station": null, "location": {"lat": -35.175938, "lng": 149.090712}, "accessibility": {"wheelchair": "none"}}, {"id": "6309", "name": "Overall Av before 2nd John Crawford Cr", "parent_station": null, "location": {"lat": -35.174598, "lng": 149.090938}, "accessibility": {"wheelchair": "none"}}, {"id": "6310", "name": "David Walsh Av after Zakharov Av", "parent_station": null, "location": {"lat": -35.175171, "lng": 149.146639}, "accessibility": {"wheelchair": "none"}}, {"id": "6311", "name": "David Walsh Av before Desmond Ln", "parent_station": null, "location": {"lat": -35.17581, "lng": 149.146299}, "accessibility": {"wheelchair": "none"}}, {"id": "6312", "name": "Zakharov Av after Justice Kelly St", "parent_station": null, "location": {"lat": -35.171357, "lng": 149.148838}, "accessibility": {"wheelchair": "none"}}, {"id": "6313", "name": "Zakharov Av after Alice Berry St", "parent_station": null, "location": {"lat": -35.171813, "lng": 149.148516}, "accessibility": {"wheelchair": "none"}}, {"id": "6315", "name": "Forde Shops Francis Forde Bvd", "parent_station": null, "location": {"lat": -35.171132, "lng": 149.143074}, "accessibility": {"wheelchair": "none"}}, {"id": "6316", "name": "Amy Ackman St after Handbury Way", "parent_station": null, "location": {"lat": -35.163469, "lng": 149.148748}, "accessibility": {"wheelchair": "none"}}, {"id": "6317", "name": "Amy Ackman St after Turbayne Cr", "parent_station": null, "location": {"lat": -35.162506, "lng": 149.149863}, "accessibility": {"wheelchair": "none"}}, {"id": "6318", "name": "Handbury St before Amy Ackman St", "parent_station": null, "location": {"lat": -35.159351, "lng": 149.151483}, "accessibility": {"wheelchair": "none"}}, {"id": "6319", "name": "Handbury Way before Mulligans Flat Rd", "parent_station": null, "location": {"lat": -35.159173, "lng": 149.150248}, "accessibility": {"wheelchair": "none"}}, {"id": "6320", "name": "Henry Williams St before Duguid St", "parent_station": null, "location": {"lat": -35.15701, "lng": 149.147019}, "accessibility": {"wheelchair": "none"}}, {"id": "6321", "name": "Henry Williams after Mabo Bvd", "parent_station": null, "location": {"lat": -35.157497, "lng": 149.146686}, "accessibility": {"wheelchair": "none"}}, {"id": "6322", "name": "Essie Coffey St before Quagliotti St", "parent_station": null, "location": {"lat": -35.153713, "lng": 149.143753}, "accessibility": {"wheelchair": "none"}}, {"id": "6323", "name": "Essie Coffey St before Margaret Tucker St", "parent_station": null, "location": {"lat": -35.15378, "lng": 149.143459}, "accessibility": {"wheelchair": "none"}}, {"id": "6324", "name": "Essie Coffey St before Roy Marika St", "parent_station": null, "location": {"lat": -35.153971, "lng": 149.139945}, "accessibility": {"wheelchair": "none"}}, {"id": "6325", "name": "Essie Coffey St before Irinyili St", "parent_station": null, "location": {"lat": -35.1541, "lng": 149.13954}, "accessibility": {"wheelchair": "none"}}, {"id": "6326", "name": "Roden Cutler Dr before Essie Coffey St", "parent_station": null, "location": {"lat": -35.155241, "lng": 149.13466}, "accessibility": {"wheelchair": "none"}}, {"id": "6327", "name": "Roden Cutler Dr after Essie Coffey St", "parent_station": null, "location": {"lat": -35.155847, "lng": 149.134831}, "accessibility": {"wheelchair": "none"}}, {"id": "6328", "name": "Mobourne St before Mallett St", "parent_station": null, "location": {"lat": -35.16054, "lng": 149.13693}, "accessibility": {"wheelchair": "none"}}, {"id": "6329", "name": "Mobourne St before Ben Blakeney St", "parent_station": null, "location": {"lat": -35.16044, "lng": 149.137}, "accessibility": {"wheelchair": "none"}}, {"id": "6330", "name": "Bonner Shops Mabo Bvd", "parent_station": null, "location": {"lat": -35.161314, "lng": 149.139551}, "accessibility": {"wheelchair": "none"}}, {"id": "6331", "name": "Neville Bonner PS Mabo Bvd", "parent_station": null, "location": {"lat": -35.162156, "lng": 149.139512}, "accessibility": {"wheelchair": "none"}}, {"id": "6332", "name": "Langtree Cr before 1st Drooka Cr", "parent_station": null, "location": {"lat": -35.200692, "lng": 149.113629}, "accessibility": {"wheelchair": "none"}}, {"id": "6333", "name": "Langtree Cr opp Jellicoe St", "parent_station": null, "location": {"lat": -35.200609, "lng": 149.113309}, "accessibility": {"wheelchair": "none"}}, {"id": "6334", "name": "Abena Av before Dobikin St", "parent_station": null, "location": {"lat": -35.200644, "lng": 149.104121}, "accessibility": {"wheelchair": "none"}}, {"id": "6335", "name": "Abena Av after Taplow St", "parent_station": null, "location": {"lat": -35.200769, "lng": 149.104088}, "accessibility": {"wheelchair": "none"}}, {"id": "6338", "name": "David Walsh Av opp Max Purnell St", "parent_station": null, "location": {"lat": -35.178853, "lng": 149.144723}, "accessibility": {"wheelchair": "none"}}, {"id": "6339", "name": "David Walsh Av before Max Purnell St", "parent_station": null, "location": {"lat": -35.17891, "lng": 149.144269}, "accessibility": {"wheelchair": "none"}}, {"id": "6666", "name": "Alexander Maconochie Centre", "parent_station": null, "location": {"lat": -35.372115, "lng": 149.170009}, "accessibility": {"wheelchair": "none"}}]