[{"id": "1001", "name": "Drumston St opp MacKillop College", "parent_station": null, "location": {"lat": -35.426112, "lng": 149.091607}, "accessibility": {"wheelchair": "none"}}, {"id": "1002", "name": "Mackillop College Drumston St", "parent_station": null, "location": {"lat": -35.425974, "lng": 149.091709}, "accessibility": {"wheelchair": "none"}}, {"id": "1005", "name": "Noorooma St after Ellerston Av", "parent_station": null, "location": {"lat": -35.428947, "lng": 149.088168}, "accessibility": {"wheelchair": "none"}}, {"id": "1007", "name": "Ellerston Av opp Isabella Plains Shops", "parent_station": null, "location": {"lat": -35.427862, "lng": 149.091027}, "accessibility": {"wheelchair": "none"}}, {"id": "1008", "name": "Isabella Plains Shops Ellerston Av", "parent_station": null, "location": {"lat": -35.427477, "lng": 149.09142}, "accessibility": {"wheelchair": "none"}}, {"id": "1009", "name": "Mackillop College Ellerston Av", "parent_station": null, "location": {"lat": -35.425654, "lng": 149.095483}, "accessibility": {"wheelchair": "none"}}, {"id": "1010", "name": "Ellerston Av opp Mackillop College", "parent_station": null, "location": {"lat": -35.425764, "lng": 149.095466}, "accessibility": {"wheelchair": "none"}}, {"id": "1011", "name": "Ellerston Av before 1st Abercorn Cr", "parent_station": null, "location": {"lat": -35.426368, "lng": 149.098008}, "accessibility": {"wheelchair": "none"}}, {"id": "1012", "name": "Ellerston Av opp 2nd Abercorn Cr", "parent_station": null, "location": {"lat": -35.426603, "lng": 149.098114}, "accessibility": {"wheelchair": "none"}}, {"id": "1013", "name": "Ellerston Av before 2nd Abercorn Cr", "parent_station": null, "location": {"lat": -35.428486, "lng": 149.100623}, "accessibility": {"wheelchair": "none"}}, {"id": "1014", "name": "Ellerston Av before 2nd Groveland Cr", "parent_station": null, "location": {"lat": -35.428391, "lng": 149.10036}, "accessibility": {"wheelchair": "none"}}, {"id": "1015", "name": "Ellerston Av before Ashley Dr", "parent_station": null, "location": {"lat": -35.42879, "lng": 149.102889}, "accessibility": {"wheelchair": "none"}}, {"id": "1016", "name": "Ellerston Av after Ashley Dr", "parent_station": null, "location": {"lat": -35.428922, "lng": 149.102838}, "accessibility": {"wheelchair": "none"}}, {"id": "1017", "name": "Calwell Shops Webber Cr", "parent_station": null, "location": {"lat": -35.435094, "lng": 149.113745}, "accessibility": {"wheelchair": "none"}}, {"id": "1018", "name": "Boddington Cr after Bacchus Cct", "parent_station": null, "location": {"lat": -35.379387, "lng": 149.054883}, "accessibility": {"wheelchair": "none"}}, {"id": "1019", "name": "Casey Cr before Carpenter Cl", "parent_station": null, "location": {"lat": -35.436661, "lng": 149.11129}, "accessibility": {"wheelchair": "none"}}, {"id": "1020", "name": "Casey Cr opp Carpenter Cl", "parent_station": null, "location": {"lat": -35.436859, "lng": 149.110846}, "accessibility": {"wheelchair": "none"}}, {"id": "1027", "name": "Duggan St after Downard St", "parent_station": null, "location": {"lat": -35.439864, "lng": 149.098624}, "accessibility": {"wheelchair": "none"}}, {"id": "1028", "name": "Duggan St after Beckett St", "parent_station": null, "location": {"lat": -35.439836, "lng": 149.098479}, "accessibility": {"wheelchair": "none"}}, {"id": "1029", "name": "Duggan St before 1st Pennington Cr", "parent_station": null, "location": {"lat": -35.441602, "lng": 149.100907}, "accessibility": {"wheelchair": "none"}}, {"id": "1030", "name": "Duggan St before 2nd Andrew Cr", "parent_station": null, "location": {"lat": -35.441603, "lng": 149.101116}, "accessibility": {"wheelchair": "none"}}, {"id": "1031", "name": "Tharwa Dr after Duggan St", "parent_station": null, "location": {"lat": -35.444823, "lng": 149.10572}, "accessibility": {"wheelchair": "none"}}, {"id": "1032", "name": "Tharwa Dr before Duggan St", "parent_station": null, "location": {"lat": -35.444455, "lng": 149.103996}, "accessibility": {"wheelchair": "none"}}, {"id": "1033", "name": "Lawrence Wackett Cr opp Theodore PS", "parent_station": null, "location": {"lat": -35.447275, "lng": 149.124613}, "accessibility": {"wheelchair": "none"}}, {"id": "1034", "name": "Theodore PS Lawrence Wackett Cr", "parent_station": null, "location": {"lat": -35.447346, "lng": 149.124487}, "accessibility": {"wheelchair": "none"}}, {"id": "1035", "name": "Lawrence Wackett Cr after 1st Burdett Cr", "parent_station": null, "location": {"lat": -35.449867, "lng": 149.122566}, "accessibility": {"wheelchair": "none"}}, {"id": "1036", "name": "Lawrence Wackett Cr before Chippindall Cct", "parent_station": null, "location": {"lat": -35.450002, "lng": 149.122491}, "accessibility": {"wheelchair": "none"}}, {"id": "1037", "name": "Chippindall Cct opp Goldfinch Cct", "parent_station": null, "location": {"lat": -35.450823, "lng": 149.120097}, "accessibility": {"wheelchair": "none"}}, {"id": "1038", "name": "Chippindall Cct after Latchford St", "parent_station": null, "location": {"lat": -35.45072, "lng": 149.120304}, "accessibility": {"wheelchair": "none"}}, {"id": "1044", "name": "Hurtle Av after 1st Noarlunga Cr", "parent_station": null, "location": {"lat": -35.434802, "lng": 149.086149}, "accessibility": {"wheelchair": "none"}}, {"id": "1045", "name": "Hurtle Av opp 2nd Noarlunga Cr", "parent_station": null, "location": {"lat": -35.434726, "lng": 149.085969}, "accessibility": {"wheelchair": "none"}}, {"id": "1046", "name": "Barr Smith Av after Salas St", "parent_station": null, "location": {"lat": -35.42673, "lng": 149.074178}, "accessibility": {"wheelchair": "none"}}, {"id": "1047", "name": "Barr Smith Av after Don Dunstan Dr", "parent_station": null, "location": {"lat": -35.426899, "lng": 149.074185}, "accessibility": {"wheelchair": "none"}}, {"id": "1052", "name": "Barr Smith Av opp Hurtle Av", "parent_station": null, "location": {"lat": -35.431101, "lng": 149.080008}, "accessibility": {"wheelchair": "none"}}, {"id": "1053", "name": "Barr Smith Av after Hurtle Av", "parent_station": null, "location": {"lat": -35.431263, "lng": 149.08006}, "accessibility": {"wheelchair": "none"}}, {"id": "1054", "name": "Hurtle Av opp Ebenezer St", "parent_station": null, "location": {"lat": -35.434405, "lng": 149.083587}, "accessibility": {"wheelchair": "none"}}, {"id": "1055", "name": "Hurtle Av after Ebenezer St", "parent_station": null, "location": {"lat": -35.433937, "lng": 149.082881}, "accessibility": {"wheelchair": "none"}}, {"id": "1056", "name": "Hurtle Av opp Bonython PS", "parent_station": null, "location": {"lat": -35.432126, "lng": 149.08231}, "accessibility": {"wheelchair": "none"}}, {"id": "1057", "name": "Bonython PS Hurtle Av", "parent_station": null, "location": {"lat": -35.431441, "lng": 149.082295}, "accessibility": {"wheelchair": "none"}}, {"id": "1059", "name": "Homeworld Soward Way", "parent_station": null, "location": {"lat": -35.418682, "lng": 149.067883}, "accessibility": {"wheelchair": "none"}}, {"id": "1060", "name": "Boddington Cr before Reynell Pl", "parent_station": null, "location": {"lat": -35.379517, "lng": 149.055117}, "accessibility": {"wheelchair": "none"}}, {"id": "1061", "name": "Soward Way after Anketell St", "parent_station": null, "location": {"lat": -35.417271, "lng": 149.070695}, "accessibility": {"wheelchair": "none"}}, {"id": "1062", "name": "Soward Way before Anketell St", "parent_station": null, "location": {"lat": -35.417379, "lng": 149.070745}, "accessibility": {"wheelchair": "none"}}, {"id": "1063", "name": "Tuggeranong Bus Depot Scollay St", "parent_station": null, "location": {"lat": -35.422657, "lng": 149.06973}, "accessibility": {"wheelchair": "none"}}, {"id": "1064", "name": "Scollay St opp Tuggeranong Bus Depot", "parent_station": null, "location": {"lat": -35.421808, "lng": 149.069227}, "accessibility": {"wheelchair": "none"}}, {"id": "1065", "name": "Anketell St before Oakden St", "parent_station": null, "location": {"lat": -35.422697, "lng": 149.072912}, "accessibility": {"wheelchair": "none"}}, {"id": "1066", "name": "Anketell St after Oakden St", "parent_station": null, "location": {"lat": -35.42255, "lng": 149.07295}, "accessibility": {"wheelchair": "none"}}, {"id": "1067", "name": "Anketell St opp Tuggeranong Square", "parent_station": null, "location": {"lat": -35.419798, "lng": 149.070847}, "accessibility": {"wheelchair": "none"}}, {"id": "1068", "name": "Tuggeranong Square Anketell St", "parent_station": null, "location": {"lat": -35.419976, "lng": 149.070832}, "accessibility": {"wheelchair": "none"}}, {"id": "1069", "name": "Ellerston Av before Noorooma St", "parent_station": null, "location": {"lat": -35.430392, "lng": 149.08816}, "accessibility": {"wheelchair": "none"}}, {"id": "1070", "name": "Ellerston Av opp Noorooma St", "parent_station": null, "location": {"lat": -35.430127, "lng": 149.088257}, "accessibility": {"wheelchair": "none"}}, {"id": "1071", "name": "Ellerston Av after Keverstone Cct", "parent_station": null, "location": {"lat": -35.431594, "lng": 149.088799}, "accessibility": {"wheelchair": "none"}}, {"id": "1072", "name": "Ellerston Av opp Keverstone Cct", "parent_station": null, "location": {"lat": -35.431555, "lng": 149.088905}, "accessibility": {"wheelchair": "none"}}, {"id": "1073", "name": "Ellerston Av after Jasper Cl", "parent_station": null, "location": {"lat": -35.431903, "lng": 149.092371}, "accessibility": {"wheelchair": "none"}}, {"id": "1074", "name": "Ellerston Av before 2nd Kadina Cr", "parent_station": null, "location": {"lat": -35.431674, "lng": 149.092063}, "accessibility": {"wheelchair": "none"}}, {"id": "1075", "name": "Ellerston Av after Johnston Dr", "parent_station": null, "location": {"lat": -35.433965, "lng": 149.094672}, "accessibility": {"wheelchair": "none"}}, {"id": "1076", "name": "Ellerston Av before Johnson Dr", "parent_station": null, "location": {"lat": -35.433781, "lng": 149.094651}, "accessibility": {"wheelchair": "none"}}, {"id": "1077", "name": "Outtrim Av before Duggan St", "parent_station": null, "location": {"lat": -35.435753, "lng": 149.098665}, "accessibility": {"wheelchair": "none"}}, {"id": "1078", "name": "Outtrim Av opp Duggan St", "parent_station": null, "location": {"lat": -35.435688, "lng": 149.09841}, "accessibility": {"wheelchair": "none"}}, {"id": "1079", "name": "Outtrim Av before 2nd Carter Cr", "parent_station": null, "location": {"lat": -35.435899, "lng": 149.102015}, "accessibility": {"wheelchair": "none"}}, {"id": "1080", "name": "Outtrim Av after Gurr St", "parent_station": null, "location": {"lat": -35.435979, "lng": 149.101939}, "accessibility": {"wheelchair": "none"}}, {"id": "1081", "name": "Outtrim Av after 2nd Carter Cr", "parent_station": null, "location": {"lat": -35.436062, "lng": 149.104675}, "accessibility": {"wheelchair": "none"}}, {"id": "1082", "name": "Outtrim Av before Gurr St", "parent_station": null, "location": {"lat": -35.436087, "lng": 149.104832}, "accessibility": {"wheelchair": "none"}}, {"id": "1083", "name": "Outtrim Av after Costello Cct", "parent_station": null, "location": {"lat": -35.435623, "lng": 149.109478}, "accessibility": {"wheelchair": "none"}}, {"id": "1084", "name": "Outtrim Av after Mountain Cct", "parent_station": null, "location": {"lat": -35.435705, "lng": 149.109488}, "accessibility": {"wheelchair": "none"}}, {"id": "1085", "name": "Calwell PS Casey Cr", "parent_station": null, "location": {"lat": -35.438693, "lng": 149.110352}, "accessibility": {"wheelchair": "none"}}, {"id": "1086", "name": "Casey Cr opp Calwell PS", "parent_station": null, "location": {"lat": -35.43858, "lng": 149.110412}, "accessibility": {"wheelchair": "none"}}, {"id": "1089", "name": "Casey Cr after O'Connor Cct", "parent_station": null, "location": {"lat": -35.440019, "lng": 149.113137}, "accessibility": {"wheelchair": "none"}}, {"id": "1090", "name": "Casey Cr opp O'Connor Cct", "parent_station": null, "location": {"lat": -35.439958, "lng": 149.113233}, "accessibility": {"wheelchair": "none"}}, {"id": "1091", "name": "Calwell Park & Ride Johnson Dr", "parent_station": null, "location": {"lat": -35.433499, "lng": 149.111284}, "accessibility": {"wheelchair": "none"}}, {"id": "1092", "name": "Casey Cr opp Calwell HS", "parent_station": null, "location": {"lat": -35.441119, "lng": 149.115918}, "accessibility": {"wheelchair": "none"}}, {"id": "1093", "name": "Johnson Dr Opp Calwell Park & Ride", "parent_station": null, "location": {"lat": -35.43321, "lng": 149.112594}, "accessibility": {"wheelchair": "none"}}, {"id": "1094", "name": "St Francis of Assisi PS Casey Cr", "parent_station": null, "location": {"lat": -35.441065, "lng": 149.118881}, "accessibility": {"wheelchair": "none"}}, {"id": "1095", "name": "Were St before Tharwa Dr", "parent_station": null, "location": {"lat": -35.440384, "lng": 149.12072}, "accessibility": {"wheelchair": "none"}}, {"id": "1096", "name": "Were St after Tharwa Dr", "parent_station": null, "location": {"lat": -35.440535, "lng": 149.120676}, "accessibility": {"wheelchair": "none"}}, {"id": "1109", "name": "Louis Loder St at 1st Vonwiller Cr", "parent_station": null, "location": {"lat": -35.445646, "lng": 149.116782}, "accessibility": {"wheelchair": "none"}}, {"id": "1110", "name": "Louis Loder St before 2nd Hartung Cr", "parent_station": null, "location": {"lat": -35.445576, "lng": 149.11667}, "accessibility": {"wheelchair": "none"}}, {"id": "1111", "name": "Louis Loder St after 2nd Mehaffey Cr", "parent_station": null, "location": {"lat": -35.446537, "lng": 149.114521}, "accessibility": {"wheelchair": "none"}}, {"id": "1112", "name": "Louis Loder St opp 1st Hartung Cr", "parent_station": null, "location": {"lat": -35.446523, "lng": 149.114891}, "accessibility": {"wheelchair": "none"}}, {"id": "1113", "name": "Louis Loder St after 1st Cochrane Cr", "parent_station": null, "location": {"lat": -35.44801, "lng": 149.115224}, "accessibility": {"wheelchair": "none"}}, {"id": "1114", "name": "44 Louis Loder St", "parent_station": null, "location": {"lat": -35.448128, "lng": 149.115262}, "accessibility": {"wheelchair": "none"}}, {"id": "1115", "name": "Louis Loder St before 2nd Vonwiller Cr", "parent_station": null, "location": {"lat": -35.450545, "lng": 149.117412}, "accessibility": {"wheelchair": "none"}}, {"id": "1116", "name": "Louis Loder St at 2nd Conlon Cr", "parent_station": null, "location": {"lat": -35.450595, "lng": 149.117269}, "accessibility": {"wheelchair": "none"}}, {"id": "1117", "name": "Clift Cr before Johnson Dr", "parent_station": null, "location": {"lat": -35.43325, "lng": 149.118429}, "accessibility": {"wheelchair": "none"}}, {"id": "1118", "name": "Clift Cr after Johnson Dr", "parent_station": null, "location": {"lat": -35.433112, "lng": 149.118228}, "accessibility": {"wheelchair": "none"}}, {"id": "1119", "name": "Clift Cr after 2nd Chauncy Cr", "parent_station": null, "location": {"lat": -35.431157, "lng": 149.119171}, "accessibility": {"wheelchair": "none"}}, {"id": "1120", "name": "Clift Cr after 1st Fullerton Cr", "parent_station": null, "location": {"lat": -35.431117, "lng": 149.119349}, "accessibility": {"wheelchair": "none"}}, {"id": "1121", "name": "Deamer Cr before Meeson St", "parent_station": null, "location": {"lat": -35.429241, "lng": 149.121439}, "accessibility": {"wheelchair": "none"}}, {"id": "1122", "name": "Deamer Cr before Clift Cr", "parent_station": null, "location": {"lat": -35.429355, "lng": 149.120942}, "accessibility": {"wheelchair": "none"}}, {"id": "1123", "name": "Deamer Cr before 2nd Twamley Cr", "parent_station": null, "location": {"lat": -35.430849, "lng": 149.123538}, "accessibility": {"wheelchair": "none"}}, {"id": "1124", "name": "Deamer Cr opp 1st Twamley Cr", "parent_station": null, "location": {"lat": -35.430915, "lng": 149.123421}, "accessibility": {"wheelchair": "none"}}, {"id": "1125", "name": "69 Deamer Cr", "parent_station": null, "location": {"lat": -35.431494, "lng": 149.127065}, "accessibility": {"wheelchair": "none"}}, {"id": "1126", "name": "Deamer Cr opp 69", "parent_station": null, "location": {"lat": -35.431724, "lng": 149.126983}, "accessibility": {"wheelchair": "none"}}, {"id": "1127", "name": "Deamer Cr opp 1st Nina Jones Cr", "parent_station": null, "location": {"lat": -35.429424, "lng": 149.128794}, "accessibility": {"wheelchair": "none"}}, {"id": "1128", "name": "Deamer Cr after 2nd Nina Jones Cr", "parent_station": null, "location": {"lat": -35.429786, "lng": 149.128673}, "accessibility": {"wheelchair": "none"}}, {"id": "1129", "name": "Deamer Cr after Heagney Cr", "parent_station": null, "location": {"lat": -35.427319, "lng": 149.129802}, "accessibility": {"wheelchair": "none"}}, {"id": "1130", "name": "Deamer Cr before Heagney Cr", "parent_station": null, "location": {"lat": -35.427189, "lng": 149.129613}, "accessibility": {"wheelchair": "none"}}, {"id": "1131", "name": "Heagney Cr before Deamer Cr", "parent_station": null, "location": {"lat": -35.426486, "lng": 149.130996}, "accessibility": {"wheelchair": "none"}}, {"id": "1132", "name": "Heagney Cr opp Deamer Cr", "parent_station": null, "location": {"lat": -35.426567, "lng": 149.130245}, "accessibility": {"wheelchair": "none"}}, {"id": "1133", "name": "Heagney Cr before 2nd Couchman Cr", "parent_station": null, "location": {"lat": -35.424588, "lng": 149.133212}, "accessibility": {"wheelchair": "none"}}, {"id": "1134", "name": "Heagney Cr before Enid Lorimer Cct", "parent_station": null, "location": {"lat": -35.424695, "lng": 149.133027}, "accessibility": {"wheelchair": "none"}}, {"id": "1135", "name": "Heagney Cr before 1st Couchman Cr", "parent_station": null, "location": {"lat": -35.423045, "lng": 149.13492}, "accessibility": {"wheelchair": "none"}}, {"id": "1136", "name": "Heagney Cr after Enid Lorimer Cct", "parent_station": null, "location": {"lat": -35.423025, "lng": 149.13453}, "accessibility": {"wheelchair": "none"}}, {"id": "1137", "name": "Heagney Cr after 1st Henry Melville Cr", "parent_station": null, "location": {"lat": -35.421379, "lng": 149.135994}, "accessibility": {"wheelchair": "none"}}, {"id": "1138", "name": "Heagney Cr after 2nd Emily Bulcock Cr", "parent_station": null, "location": {"lat": -35.420927, "lng": 149.136018}, "accessibility": {"wheelchair": "none"}}, {"id": "1139", "name": "Heagney Cr opp Gilmore PS", "parent_station": null, "location": {"lat": -35.419229, "lng": 149.136097}, "accessibility": {"wheelchair": "none"}}, {"id": "1140", "name": "Gilmore PS Heagney Cr", "parent_station": null, "location": {"lat": -35.419093, "lng": 149.135985}, "accessibility": {"wheelchair": "none"}}, {"id": "1143", "name": "Proctor St opp Maclean St", "parent_station": null, "location": {"lat": -35.415211, "lng": 149.12515}, "accessibility": {"wheelchair": "none"}}, {"id": "1144", "name": "Proctor St after MacLean St", "parent_station": null, "location": {"lat": -35.415327, "lng": 149.125257}, "accessibility": {"wheelchair": "none"}}, {"id": "1147", "name": "Chisholm Shops Benham St", "parent_station": null, "location": {"lat": -35.414421, "lng": 149.129066}, "accessibility": {"wheelchair": "none"}}, {"id": "1148", "name": "Benham St opp Chisholm Shops", "parent_station": null, "location": {"lat": -35.414484, "lng": 149.129233}, "accessibility": {"wheelchair": "none"}}, {"id": "1149", "name": "Coyne St before Carson St", "parent_station": null, "location": {"lat": -35.409005, "lng": 149.127953}, "accessibility": {"wheelchair": "none"}}, {"id": "1150", "name": "Coyne St opp Carson St", "parent_station": null, "location": {"lat": -35.409158, "lng": 149.127772}, "accessibility": {"wheelchair": "none"}}, {"id": "1151", "name": "19 Coyne St", "parent_station": null, "location": {"lat": -35.409167, "lng": 149.123106}, "accessibility": {"wheelchair": "none"}}, {"id": "1152", "name": "Coyne St opp 19", "parent_station": null, "location": {"lat": -35.409226, "lng": 149.122726}, "accessibility": {"wheelchair": "none"}}, {"id": "1153", "name": "Bugden Av before 2nd Larcombe Cr", "parent_station": null, "location": {"lat": -35.406964, "lng": 149.120433}, "accessibility": {"wheelchair": "none"}}, {"id": "1154", "name": "Bugden Av before Coyne St", "parent_station": null, "location": {"lat": -35.406757, "lng": 149.120472}, "accessibility": {"wheelchair": "none"}}, {"id": "1155", "name": "Bugden Av before 2nd Demaine Cr", "parent_station": null, "location": {"lat": -35.404229, "lng": 149.122455}, "accessibility": {"wheelchair": "none"}}, {"id": "1156", "name": "Bugden Av after Fihelly St", "parent_station": null, "location": {"lat": -35.404353, "lng": 149.121963}, "accessibility": {"wheelchair": "none"}}, {"id": "1157", "name": "Bugden Av before 1st Mullan St", "parent_station": null, "location": {"lat": -35.402395, "lng": 149.124135}, "accessibility": {"wheelchair": "none"}}, {"id": "1158", "name": "Bugden Av opp 2nd Mullan St", "parent_station": null, "location": {"lat": -35.401231, "lng": 149.123513}, "accessibility": {"wheelchair": "none"}}, {"id": "1159", "name": "Bugden Av after 2nd Mullan St", "parent_station": null, "location": {"lat": -35.398518, "lng": 149.122122}, "accessibility": {"wheelchair": "none"}}, {"id": "1160", "name": "Bugden Av opp 309", "parent_station": null, "location": {"lat": -35.398621, "lng": 149.122257}, "accessibility": {"wheelchair": "none"}}, {"id": "1161", "name": "Bugden Av after 1st Dash Cr", "parent_station": null, "location": {"lat": -35.400242, "lng": 149.115685}, "accessibility": {"wheelchair": "none"}}, {"id": "1162", "name": "Bugden Av after Partridge St", "parent_station": null, "location": {"lat": -35.401436, "lng": 149.114272}, "accessibility": {"wheelchair": "none"}}, {"id": "1163", "name": "Bugden Av opp 2nd Maughan Cr", "parent_station": null, "location": {"lat": -35.40132, "lng": 149.112769}, "accessibility": {"wheelchair": "none"}}, {"id": "1164", "name": "Bugden Av before 2nd Maughan Cr", "parent_station": null, "location": {"lat": -35.401832, "lng": 149.110301}, "accessibility": {"wheelchair": "none"}}, {"id": "1165", "name": "Bugden Av after 1st Appel Cr", "parent_station": null, "location": {"lat": -35.401708, "lng": 149.110045}, "accessibility": {"wheelchair": "none"}}, {"id": "1166", "name": "Bugden Av after Sternberg Cr", "parent_station": null, "location": {"lat": -35.40265, "lng": 149.107483}, "accessibility": {"wheelchair": "none"}}, {"id": "1167", "name": "Bugden Av before Sternberg Cr", "parent_station": null, "location": {"lat": -35.402691, "lng": 149.107556}, "accessibility": {"wheelchair": "none"}}, {"id": "1168", "name": "Bugden Av before 2nd Appel Cr", "parent_station": null, "location": {"lat": -35.39954, "lng": 149.115823}, "accessibility": {"wheelchair": "none"}}, {"id": "1170", "name": "Sternberg Cr after Erindale Dr", "parent_station": null, "location": {"lat": -35.402261, "lng": 149.103288}, "accessibility": {"wheelchair": "none"}}, {"id": "1171", "name": "Sternberg Cr after Ashley Dr", "parent_station": null, "location": {"lat": -35.401941, "lng": 149.100575}, "accessibility": {"wheelchair": "none"}}, {"id": "1172", "name": "Erindale Interchange Plt 1", "parent_station": null, "location": {"lat": -35.403649, "lng": 149.099162}, "accessibility": {"wheelchair": "none"}}, {"id": "1173", "name": "Erindale Interchange Plt 2", "parent_station": null, "location": {"lat": -35.404053, "lng": 149.099282}, "accessibility": {"wheelchair": "none"}}, {"id": "1174", "name": "Sternberg Cr before Maltby Cct", "parent_station": null, "location": {"lat": -35.401992, "lng": 149.102749}, "accessibility": {"wheelchair": "none"}}, {"id": "1176", "name": "Erindale College McBryde Cr", "parent_station": null, "location": {"lat": -35.403907, "lng": 149.095995}, "accessibility": {"wheelchair": "none"}}, {"id": "1177", "name": "McBryde Cr opp Erindale College", "parent_station": null, "location": {"lat": -35.404224, "lng": 149.096148}, "accessibility": {"wheelchair": "none"}}, {"id": "1178", "name": "Amsinck St after McBryde Cr", "parent_station": null, "location": {"lat": -35.405554, "lng": 149.093547}, "accessibility": {"wheelchair": "none"}}, {"id": "1179", "name": "Amsinck St before McBryde Cr", "parent_station": null, "location": {"lat": -35.405601, "lng": 149.093296}, "accessibility": {"wheelchair": "none"}}, {"id": "1180", "name": "MacKillop College McBryde Cr", "parent_station": null, "location": {"lat": -35.406139, "lng": 149.090581}, "accessibility": {"wheelchair": "none"}}, {"id": "1181", "name": "McBryde Cr opp MacKillop College", "parent_station": null, "location": {"lat": -35.406264, "lng": 149.090564}, "accessibility": {"wheelchair": "none"}}, {"id": "1182", "name": "Woodcock Dr before Clare Dennis Av", "parent_station": null, "location": {"lat": -35.441863, "lng": 149.086183}, "accessibility": {"wheelchair": "none"}}, {"id": "1183", "name": "Woodcock Dr opp Clare Dennis Av", "parent_station": null, "location": {"lat": -35.441692, "lng": 149.086154}, "accessibility": {"wheelchair": "none"}}, {"id": "1184", "name": "Clare Dennis Av before Armbruster St", "parent_station": null, "location": {"lat": -35.443044, "lng": 149.085974}, "accessibility": {"wheelchair": "none"}}, {"id": "1185", "name": "Clare Dennis Av before 1st Fred Ln Cr", "parent_station": null, "location": {"lat": -35.445159, "lng": 149.0878}, "accessibility": {"wheelchair": "none"}}, {"id": "1186", "name": "Clare Dennis Av before 2nd Fred Ln Cr", "parent_station": null, "location": {"lat": -35.446768, "lng": 149.086077}, "accessibility": {"wheelchair": "none"}}, {"id": "1187", "name": "Clare Dennis Av before Preddey Way", "parent_station": null, "location": {"lat": -35.447089, "lng": 149.08384}, "accessibility": {"wheelchair": "none"}}, {"id": "1188", "name": "Lewis Luxton Av after Preddey Way", "parent_station": null, "location": {"lat": -35.448402, "lng": 149.086122}, "accessibility": {"wheelchair": "none"}}, {"id": "1189", "name": "Lewis Luxton Av opp Blinkhorn Pl", "parent_station": null, "location": {"lat": -35.450436, "lng": 149.08909}, "accessibility": {"wheelchair": "none"}}, {"id": "1190", "name": "Lewis Luxton Av opp 2nd Cerutty Cr", "parent_station": null, "location": {"lat": -35.452903, "lng": 149.08797}, "accessibility": {"wheelchair": "none"}}, {"id": "1191", "name": "Knoke Av opp Gordon PS", "parent_station": null, "location": {"lat": -35.458121, "lng": 149.086118}, "accessibility": {"wheelchair": "none"}}, {"id": "1192", "name": "Knoke Av before Oxenham Cct", "parent_station": null, "location": {"lat": -35.460578, "lng": 149.085659}, "accessibility": {"wheelchair": "none"}}, {"id": "1193", "name": "Knoke Av after Jim Pike Av", "parent_station": null, "location": {"lat": -35.462281, "lng": 149.083208}, "accessibility": {"wheelchair": "none"}}, {"id": "1194", "name": "Jim Pike Av before Clem Hill St", "parent_station": null, "location": {"lat": -35.462016, "lng": 149.079911}, "accessibility": {"wheelchair": "none"}}, {"id": "1195", "name": "Callaway Cr at 1st Myles Connell Cr", "parent_station": null, "location": {"lat": -35.459068, "lng": 149.080047}, "accessibility": {"wheelchair": "none"}}, {"id": "1196", "name": "39 Callaway Cr", "parent_station": null, "location": {"lat": -35.460036, "lng": 149.081737}, "accessibility": {"wheelchair": "none"}}, {"id": "1197", "name": "Bugden Av after 2nd Chataway Cr", "parent_station": null, "location": {"lat": -35.398638, "lng": 149.117563}, "accessibility": {"wheelchair": "none"}}, {"id": "1198", "name": "Bugden Av opp 1st Chataway Cr", "parent_station": null, "location": {"lat": -35.398045, "lng": 149.118252}, "accessibility": {"wheelchair": "none"}}, {"id": "1199", "name": "Knoke Av after Clem Hill St", "parent_station": null, "location": {"lat": -35.464786, "lng": 149.084188}, "accessibility": {"wheelchair": "none"}}, {"id": "1200", "name": "Knoke Av after 2nd Harry Hopman Cct", "parent_station": null, "location": {"lat": -35.467259, "lng": 149.087641}, "accessibility": {"wheelchair": "none"}}, {"id": "1201", "name": "Knoke Av after 1st Harry Hopman Cct", "parent_station": null, "location": {"lat": -35.472807, "lng": 149.089281}, "accessibility": {"wheelchair": "none"}}, {"id": "1202", "name": "Pockett Av after Bellchambers Cr", "parent_station": null, "location": {"lat": -35.474078, "lng": 149.093168}, "accessibility": {"wheelchair": "none"}}, {"id": "1203", "name": "Pockett Av after Wilson Cr", "parent_station": null, "location": {"lat": -35.471702, "lng": 149.096924}, "accessibility": {"wheelchair": "none"}}, {"id": "1204", "name": "Pockett Av after 2nd Ironbark Cr", "parent_station": null, "location": {"lat": -35.469475, "lng": 149.097634}, "accessibility": {"wheelchair": "none"}}, {"id": "1205", "name": "Pockett Av after Perrin Cct", "parent_station": null, "location": {"lat": -35.467558, "lng": 149.095362}, "accessibility": {"wheelchair": "none"}}, {"id": "1206", "name": "Pockett Av before Thomas Hart St", "parent_station": null, "location": {"lat": -35.46528, "lng": 149.094099}, "accessibility": {"wheelchair": "none"}}, {"id": "1207", "name": "Tom Roberts Av at Box Hill Av", "parent_station": null, "location": {"lat": -35.463823, "lng": 149.096494}, "accessibility": {"wheelchair": "none"}}, {"id": "1208", "name": "Tom Roberts Av opp Charles Conder PS", "parent_station": null, "location": {"lat": -35.465324, "lng": 149.098411}, "accessibility": {"wheelchair": "none"}}, {"id": "1210", "name": "Tom Roberts Av before Jane Sutherland St", "parent_station": null, "location": {"lat": -35.466303, "lng": 149.105607}, "accessibility": {"wheelchair": "none"}}, {"id": "1211", "name": "Tom Roberts Av before 1st Templestowe Av", "parent_station": null, "location": {"lat": -35.462228, "lng": 149.105193}, "accessibility": {"wheelchair": "none"}}, {"id": "1212", "name": "Tom Roberts Av opp John Russell Cct", "parent_station": null, "location": {"lat": -35.461222, "lng": 149.102208}, "accessibility": {"wheelchair": "none"}}, {"id": "1213", "name": "Tom Roberts Av after Box Hill Av", "parent_station": null, "location": {"lat": -35.460419, "lng": 149.099253}, "accessibility": {"wheelchair": "none"}}, {"id": "1214", "name": "Tom Roberts Av after 1st Beaumaris St", "parent_station": null, "location": {"lat": -35.466403, "lng": 149.10042}, "accessibility": {"wheelchair": "none"}}, {"id": "1215", "name": "Box Hill Av opp Lanyon Marketplace", "parent_station": null, "location": {"lat": -35.456171, "lng": 149.092495}, "accessibility": {"wheelchair": "none"}}, {"id": "1216", "name": "Box Hill Av opp St Clare of Assisi PS", "parent_station": null, "location": {"lat": -35.457716, "lng": 149.097362}, "accessibility": {"wheelchair": "none"}}, {"id": "1217", "name": "Lanyon Marketplace Box Hill Av", "parent_station": null, "location": {"lat": -35.456354, "lng": 149.092463}, "accessibility": {"wheelchair": "none"}}, {"id": "1218", "name": "St Clare of Assisi PS Box Hill Av", "parent_station": null, "location": {"lat": -35.457981, "lng": 149.097464}, "accessibility": {"wheelchair": "none"}}, {"id": "1219", "name": "Tom Roberts Av before Box Hill Av", "parent_station": null, "location": {"lat": -35.46047, "lng": 149.099015}, "accessibility": {"wheelchair": "none"}}, {"id": "1220", "name": "Tom Roberts Av before Altson Cct", "parent_station": null, "location": {"lat": -35.461297, "lng": 149.10181}, "accessibility": {"wheelchair": "none"}}, {"id": "1221", "name": "Tom Roberts Av before Lethbridge St", "parent_station": null, "location": {"lat": -35.462199, "lng": 149.104985}, "accessibility": {"wheelchair": "none"}}, {"id": "1223", "name": "Charles Conder PS Tom Roberts Av", "parent_station": null, "location": {"lat": -35.464854, "lng": 149.097978}, "accessibility": {"wheelchair": "none"}}, {"id": "1224", "name": "Pockett Av before Box Hill Av", "parent_station": null, "location": {"lat": -35.464987, "lng": 149.093953}, "accessibility": {"wheelchair": "none"}}, {"id": "1225", "name": "Pockett Av before 2nd Tregellas Cr", "parent_station": null, "location": {"lat": -35.46759, "lng": 149.095269}, "accessibility": {"wheelchair": "none"}}, {"id": "1226", "name": "Pockett Av opp Wiburd St", "parent_station": null, "location": {"lat": -35.470394, "lng": 149.097662}, "accessibility": {"wheelchair": "none"}}, {"id": "1227", "name": "Banks Shops Pockett Av", "parent_station": null, "location": {"lat": -35.472431, "lng": 149.095951}, "accessibility": {"wheelchair": "none"}}, {"id": "1228", "name": "Pockett Av before Brockway Cct", "parent_station": null, "location": {"lat": -35.473497, "lng": 149.091731}, "accessibility": {"wheelchair": "none"}}, {"id": "1229", "name": "Knoke Av after Coventry Cl", "parent_station": null, "location": {"lat": -35.472849, "lng": 149.089454}, "accessibility": {"wheelchair": "none"}}, {"id": "1230", "name": "Knoke Av after Minnett Cl", "parent_station": null, "location": {"lat": -35.470765, "lng": 149.088898}, "accessibility": {"wheelchair": "none"}}, {"id": "1231", "name": "Knoke Av opp O'Hara Cl", "parent_station": null, "location": {"lat": -35.470876, "lng": 149.088786}, "accessibility": {"wheelchair": "none"}}, {"id": "1232", "name": "Knoke Av before 2nd Mina Wylie Cr", "parent_station": null, "location": {"lat": -35.467176, "lng": 149.087682}, "accessibility": {"wheelchair": "none"}}, {"id": "1233", "name": "Knoke Av before Matson St", "parent_station": null, "location": {"lat": -35.46567, "lng": 149.085585}, "accessibility": {"wheelchair": "none"}}, {"id": "1234", "name": "Knoke Av opp Jim Pike Av", "parent_station": null, "location": {"lat": -35.461984, "lng": 149.083647}, "accessibility": {"wheelchair": "none"}}, {"id": "1235", "name": "Knoke Av after Midge St", "parent_station": null, "location": {"lat": -35.460663, "lng": 149.085728}, "accessibility": {"wheelchair": "none"}}, {"id": "1237", "name": "Lewis Luxton Av before 1st Cerutty Cr", "parent_station": null, "location": {"lat": -35.452995, "lng": 149.087346}, "accessibility": {"wheelchair": "none"}}, {"id": "1238", "name": "Lewis Luxton Av before Blinkhorn Pl", "parent_station": null, "location": {"lat": -35.450896, "lng": 149.089342}, "accessibility": {"wheelchair": "none"}}, {"id": "1239", "name": "61 Lewis Luxton Av", "parent_station": null, "location": {"lat": -35.448733, "lng": 149.087143}, "accessibility": {"wheelchair": "none"}}, {"id": "1240", "name": "Preddey Way at Fingleton Cr", "parent_station": null, "location": {"lat": -35.448164, "lng": 149.084205}, "accessibility": {"wheelchair": "none"}}, {"id": "1241", "name": "Clare Dennis Av before 2nd Noel Ryan Gdn", "parent_station": null, "location": {"lat": -35.446543, "lng": 149.085447}, "accessibility": {"wheelchair": "none"}}, {"id": "1242", "name": "Clare Dennis Av opp Churchill Way", "parent_station": null, "location": {"lat": -35.444641, "lng": 149.087167}, "accessibility": {"wheelchair": "none"}}, {"id": "1243", "name": "Clare Dennis Av after Woodfull Lp", "parent_station": null, "location": {"lat": -35.44312, "lng": 149.085845}, "accessibility": {"wheelchair": "none"}}, {"id": "1248", "name": "Streeton Dr before 1st Fremantle Dr", "parent_station": null, "location": {"lat": -35.34468, "lng": 149.047096}, "accessibility": {"wheelchair": "none"}}, {"id": "1249", "name": "Streeton Dr before Hindmarsh Dr", "parent_station": null, "location": {"lat": -35.344613, "lng": 149.047036}, "accessibility": {"wheelchair": "none"}}, {"id": "1250", "name": "Fremantle Dr after Streeton Dr", "parent_station": null, "location": {"lat": -35.346407, "lng": 149.046936}, "accessibility": {"wheelchair": "none"}}, {"id": "1251", "name": "Fremantle Dr before Streeton Dr", "parent_station": null, "location": {"lat": -35.3466, "lng": 149.047038}, "accessibility": {"wheelchair": "none"}}, {"id": "1252", "name": "Fremantle Dr before Bunbury St", "parent_station": null, "location": {"lat": -35.348284, "lng": 149.049235}, "accessibility": {"wheelchair": "none"}}, {"id": "1253", "name": "Fremantle Dr opp 1st McKail Cr", "parent_station": null, "location": {"lat": -35.34736, "lng": 149.048194}, "accessibility": {"wheelchair": "none"}}, {"id": "1258", "name": "Namatjira Dr opp St John Vianney", "parent_station": null, "location": {"lat": -35.35258, "lng": 149.053303}, "accessibility": {"wheelchair": "none"}}, {"id": "1259", "name": "Namatjira Dr after Streeton Dr", "parent_station": null, "location": {"lat": -35.355188, "lng": 149.050493}, "accessibility": {"wheelchair": "none"}}, {"id": "1260", "name": "St John Vianney Namatjira Dr", "parent_station": null, "location": {"lat": -35.351922, "lng": 149.05415}, "accessibility": {"wheelchair": "none"}}, {"id": "1261", "name": "Tom Roberts Av after Wiburd St", "parent_station": null, "location": {"lat": -35.466561, "lng": 149.100512}, "accessibility": {"wheelchair": "none"}}, {"id": "1262", "name": "Wiburd St before Pockett Av", "parent_station": null, "location": {"lat": -35.469931, "lng": 149.098659}, "accessibility": {"wheelchair": "none"}}, {"id": "1263", "name": "Namatjira Dr after Badimara St", "parent_station": null, "location": {"lat": -35.355115, "lng": 149.050801}, "accessibility": {"wheelchair": "none"}}, {"id": "1264", "name": "Namatjira Dr opp Perry Dr", "parent_station": null, "location": {"lat": -35.35848, "lng": 149.047931}, "accessibility": {"wheelchair": "none"}}, {"id": "1265", "name": "Namatjira Dr before Kapunda St", "parent_station": null, "location": {"lat": -35.360591, "lng": 149.047806}, "accessibility": {"wheelchair": "none"}}, {"id": "1266", "name": "Namatjira Dr opp 204", "parent_station": null, "location": {"lat": -35.363693, "lng": 149.049925}, "accessibility": {"wheelchair": "none"}}, {"id": "1269", "name": "Namatjira Dr after Perry Dr", "parent_station": null, "location": {"lat": -35.358207, "lng": 149.047876}, "accessibility": {"wheelchair": "none"}}, {"id": "1270", "name": "Namatjira Dr before Perry Dr", "parent_station": null, "location": {"lat": -35.360443, "lng": 149.047657}, "accessibility": {"wheelchair": "none"}}, {"id": "1271", "name": "Namatjira Dr opp 223", "parent_station": null, "location": {"lat": -35.364329, "lng": 149.050323}, "accessibility": {"wheelchair": "none"}}, {"id": "1272", "name": "Kambah Pool Rd after Sulwood Dr", "parent_station": null, "location": {"lat": -35.375136, "lng": 149.048963}, "accessibility": {"wheelchair": "none"}}, {"id": "1273", "name": "Kambah Pool Rd after Barritt St", "parent_station": null, "location": {"lat": -35.37534, "lng": 149.048615}, "accessibility": {"wheelchair": "none"}}, {"id": "1274", "name": "Barritt St after Kambah Pool Rd", "parent_station": null, "location": {"lat": -35.377991, "lng": 149.048365}, "accessibility": {"wheelchair": "none"}}, {"id": "1275", "name": "Barritt St before Kambah Pool Rd", "parent_station": null, "location": {"lat": -35.378093, "lng": 149.048299}, "accessibility": {"wheelchair": "none"}}, {"id": "1276", "name": "Barritt St before Boddington Cr", "parent_station": null, "location": {"lat": -35.380209, "lng": 149.05186}, "accessibility": {"wheelchair": "none"}}, {"id": "1277", "name": "Barritt St after Boddington Cr", "parent_station": null, "location": {"lat": -35.379861, "lng": 149.051195}, "accessibility": {"wheelchair": "none"}}, {"id": "1278", "name": "Boddington Cr before Barritt St", "parent_station": null, "location": {"lat": -35.381211, "lng": 149.051777}, "accessibility": {"wheelchair": "none"}}, {"id": "1279", "name": "Boddington Cr after Carleton St", "parent_station": null, "location": {"lat": -35.382091, "lng": 149.051152}, "accessibility": {"wheelchair": "none"}}, {"id": "1280", "name": "Boddington Cr opp Carleton St", "parent_station": null, "location": {"lat": -35.382089, "lng": 149.051281}, "accessibility": {"wheelchair": "none"}}, {"id": "1281", "name": "Boddington Cr before 1st Castley Cct", "parent_station": null, "location": {"lat": -35.385031, "lng": 149.050564}, "accessibility": {"wheelchair": "none"}}, {"id": "1282", "name": "Boddington Cr after 2nd Crozier Cct", "parent_station": null, "location": {"lat": -35.385778, "lng": 149.050416}, "accessibility": {"wheelchair": "none"}}, {"id": "1283", "name": "Boddington Cr after 2nd Castley Cct", "parent_station": null, "location": {"lat": -35.389283, "lng": 149.051643}, "accessibility": {"wheelchair": "none"}}, {"id": "1284", "name": "Boddington Cr after Bateman St", "parent_station": null, "location": {"lat": -35.389192, "lng": 149.051368}, "accessibility": {"wheelchair": "none"}}, {"id": "1285", "name": "Boddington Cr opp McLeod Pl", "parent_station": null, "location": {"lat": -35.390043, "lng": 149.053656}, "accessibility": {"wheelchair": "none"}}, {"id": "1286", "name": "Boddington Cr opp Broad Pl", "parent_station": null, "location": {"lat": -35.389199, "lng": 149.056659}, "accessibility": {"wheelchair": "none"}}, {"id": "1287", "name": "Boddington Cr after McLeod Pl", "parent_station": null, "location": {"lat": -35.390316, "lng": 149.053797}, "accessibility": {"wheelchair": "none"}}, {"id": "1288", "name": "Boddington Cr before Broad Pl", "parent_station": null, "location": {"lat": -35.389395, "lng": 149.057158}, "accessibility": {"wheelchair": "none"}}, {"id": "1289", "name": "O'Halloran Cct opp Boddington Cr", "parent_station": null, "location": {"lat": -35.390376, "lng": 149.059036}, "accessibility": {"wheelchair": "none"}}, {"id": "1290", "name": "O'Halloran Cct before Boddington Cr", "parent_station": null, "location": {"lat": -35.390364, "lng": 149.058859}, "accessibility": {"wheelchair": "none"}}, {"id": "1291", "name": "O'Halloran Cct after 2nd Springbett St", "parent_station": null, "location": {"lat": -35.392912, "lng": 149.058194}, "accessibility": {"wheelchair": "none"}}, {"id": "1292", "name": "O'Halloran Cct before 2nd McKillop Cct", "parent_station": null, "location": {"lat": -35.393119, "lng": 149.058008}, "accessibility": {"wheelchair": "none"}}, {"id": "1293", "name": "O'Halloran Cct before 1st Snodgrass Cr", "parent_station": null, "location": {"lat": -35.395622, "lng": 149.059255}, "accessibility": {"wheelchair": "none"}}, {"id": "1294", "name": "O'Halloran Cct opp 2nd Snodgrass Cr", "parent_station": null, "location": {"lat": -35.395814, "lng": 149.059279}, "accessibility": {"wheelchair": "none"}}, {"id": "1295", "name": "O'Halloran Cct before Vansittart Cr", "parent_station": null, "location": {"lat": -35.39579, "lng": 149.062886}, "accessibility": {"wheelchair": "none"}}, {"id": "1296", "name": "O'Halloran Cct after Vansittart Cr", "parent_station": null, "location": {"lat": -35.395919, "lng": 149.062892}, "accessibility": {"wheelchair": "none"}}, {"id": "1297", "name": "O'Halloran Cct before Ashby Cct", "parent_station": null, "location": {"lat": -35.394099, "lng": 149.065924}, "accessibility": {"wheelchair": "none"}}, {"id": "1298", "name": "O'Halloran Cct opp Ashby Cct", "parent_station": null, "location": {"lat": -35.393972, "lng": 149.065792}, "accessibility": {"wheelchair": "none"}}, {"id": "1299", "name": "O'Halloran Cct opp Namadgi School", "parent_station": null, "location": {"lat": -35.393073, "lng": 149.067676}, "accessibility": {"wheelchair": "none"}}, {"id": "13", "name": "Tuggeranong Interchange Arrivals", "parent_station": null, "location": {"lat": -35.414955, "lng": 149.06608}, "accessibility": {"wheelchair": "none"}}, {"id": "1300", "name": "Namadgi School O'Halloran Cct", "parent_station": null, "location": {"lat": -35.392579, "lng": 149.068207}, "accessibility": {"wheelchair": "none"}}, {"id": "1301", "name": "Summerland Cct after Vanzetti Cr", "parent_station": null, "location": {"lat": -35.391096, "lng": 149.071581}, "accessibility": {"wheelchair": "none"}}, {"id": "1302", "name": "Summerland Cct before 1st Kingsmill St", "parent_station": null, "location": {"lat": -35.390979, "lng": 149.071495}, "accessibility": {"wheelchair": "none"}}, {"id": "1303", "name": "Summerland Cct before 2nd Kingsmill St", "parent_station": null, "location": {"lat": -35.390028, "lng": 149.073554}, "accessibility": {"wheelchair": "none"}}, {"id": "1304", "name": "Summerland Cct after Livingston Av", "parent_station": null, "location": {"lat": -35.390173, "lng": 149.073483}, "accessibility": {"wheelchair": "none"}}, {"id": "1319", "name": "Wheeler Cr before Wanniassa HS", "parent_station": null, "location": {"lat": -35.394195, "lng": 149.084369}, "accessibility": {"wheelchair": "none"}}, {"id": "1320", "name": "St Anthonys PS Wheeler Cr", "parent_station": null, "location": {"lat": -35.394895, "lng": 149.080012}, "accessibility": {"wheelchair": "none"}}, {"id": "1321", "name": "Wheeler Cr after Wanniassa HS", "parent_station": null, "location": {"lat": -35.394279, "lng": 149.08497}, "accessibility": {"wheelchair": "none"}}, {"id": "1322", "name": "Wheeler Cr opp St Anthonys PS", "parent_station": null, "location": {"lat": -35.394982, "lng": 149.079947}, "accessibility": {"wheelchair": "none"}}, {"id": "1323", "name": "Fincham Cr after Morrissey St", "parent_station": null, "location": {"lat": -35.39616, "lng": 149.078911}, "accessibility": {"wheelchair": "none"}}, {"id": "1324", "name": "Fincham Cr after Wheeler Cr", "parent_station": null, "location": {"lat": -35.3963, "lng": 149.079126}, "accessibility": {"wheelchair": "none"}}, {"id": "1325", "name": "Fincham Cr before Stutt St", "parent_station": null, "location": {"lat": -35.398613, "lng": 149.080301}, "accessibility": {"wheelchair": "none"}}, {"id": "1326", "name": "Fincham Cr after 1st DeGraves Cr", "parent_station": null, "location": {"lat": -35.398902, "lng": 149.080518}, "accessibility": {"wheelchair": "none"}}, {"id": "1327", "name": "Forlonge St after Fincham Cr", "parent_station": null, "location": {"lat": -35.401054, "lng": 149.081262}, "accessibility": {"wheelchair": "none"}}, {"id": "1328", "name": "Forlonge St before Gair Pl", "parent_station": null, "location": {"lat": -35.401413, "lng": 149.080926}, "accessibility": {"wheelchair": "none"}}, {"id": "1335", "name": "Sternberg Cr opp Houston St", "parent_station": null, "location": {"lat": -35.402386, "lng": 149.09281}, "accessibility": {"wheelchair": "none"}}, {"id": "1336", "name": "Sternberg Cr opp Whiteman Cr", "parent_station": null, "location": {"lat": -35.4012, "lng": 149.094982}, "accessibility": {"wheelchair": "none"}}, {"id": "1337", "name": "Sternberg Cr before Houston St", "parent_station": null, "location": {"lat": -35.40235, "lng": 149.092721}, "accessibility": {"wheelchair": "none"}}, {"id": "1338", "name": "Sternberg Cr after Whiteman St", "parent_station": null, "location": {"lat": -35.401034, "lng": 149.095201}, "accessibility": {"wheelchair": "none"}}, {"id": "1339", "name": "Sternberg Cr after Langdon Av", "parent_station": null, "location": {"lat": -35.401439, "lng": 149.098251}, "accessibility": {"wheelchair": "none"}}, {"id": "1340", "name": "Sternberg Cr after Comrie St", "parent_station": null, "location": {"lat": -35.401696, "lng": 149.098671}, "accessibility": {"wheelchair": "none"}}, {"id": "1341", "name": "Drakeford Dr after Boddington Cr", "parent_station": null, "location": {"lat": -35.377343, "lng": 149.056195}, "accessibility": {"wheelchair": "none"}}, {"id": "1342", "name": "Drakeford Dr before Marconi Cr", "parent_station": null, "location": {"lat": -35.377347, "lng": 149.056592}, "accessibility": {"wheelchair": "none"}}, {"id": "1343", "name": "Marconi Cr opp Kambah Village", "parent_station": null, "location": {"lat": -35.378927, "lng": 149.057634}, "accessibility": {"wheelchair": "none"}}, {"id": "1344", "name": "Kambah Village Marconi Cr", "parent_station": null, "location": {"lat": -35.379136, "lng": 149.057769}, "accessibility": {"wheelchair": "none"}}, {"id": "1345", "name": "Marconi Cr before 2nd Harrington Cct", "parent_station": null, "location": {"lat": -35.377833, "lng": 149.060636}, "accessibility": {"wheelchair": "none"}}, {"id": "1346", "name": "Marconi Cr after Wyselaskie Cct", "parent_station": null, "location": {"lat": -35.378267, "lng": 149.06011}, "accessibility": {"wheelchair": "none"}}, {"id": "1347", "name": "Marconi Cr opp Taylor PS", "parent_station": null, "location": {"lat": -35.377614, "lng": 149.064032}, "accessibility": {"wheelchair": "none"}}, {"id": "1348", "name": "Taylor PS Marconi Cr", "parent_station": null, "location": {"lat": -35.377741, "lng": 149.06406}, "accessibility": {"wheelchair": "none"}}, {"id": "1349", "name": "Marconi Cr after 2nd Lascelles Cct", "parent_station": null, "location": {"lat": -35.378684, "lng": 149.065348}, "accessibility": {"wheelchair": "none"}}, {"id": "1350", "name": "Marconi Cr after Inkster St", "parent_station": null, "location": {"lat": -35.378728, "lng": 149.065491}, "accessibility": {"wheelchair": "none"}}, {"id": "1351", "name": "Marconi Cr after 1st Lascelles Cct", "parent_station": null, "location": {"lat": -35.381701, "lng": 149.065314}, "accessibility": {"wheelchair": "none"}}, {"id": "1352", "name": "Marconi Cr after Hutchison Cr", "parent_station": null, "location": {"lat": -35.381402, "lng": 149.065583}, "accessibility": {"wheelchair": "none"}}, {"id": "1353", "name": "Summerland Cct before Hutchison Cr", "parent_station": null, "location": {"lat": -35.383372, "lng": 149.06747}, "accessibility": {"wheelchair": "none"}}, {"id": "1354", "name": "Summerland Cct opp Hutchison Cr", "parent_station": null, "location": {"lat": -35.383463, "lng": 149.067486}, "accessibility": {"wheelchair": "none"}}, {"id": "1355", "name": "Summerland Cct before Mannheim St", "parent_station": null, "location": {"lat": -35.384914, "lng": 149.070892}, "accessibility": {"wheelchair": "none"}}, {"id": "1356", "name": "Summerland Cct before 1st Gallagher St", "parent_station": null, "location": {"lat": -35.38502, "lng": 149.071134}, "accessibility": {"wheelchair": "none"}}, {"id": "1357", "name": "Summerland Cct after 2nd Lee-Steere Cr", "parent_station": null, "location": {"lat": -35.387624, "lng": 149.075039}, "accessibility": {"wheelchair": "none"}}, {"id": "1358", "name": "Summerland Cct opp 1st Lee-Steere Cr", "parent_station": null, "location": {"lat": -35.387515, "lng": 149.074926}, "accessibility": {"wheelchair": "none"}}, {"id": "1359", "name": "Langdon Av after Dyer Pl", "parent_station": null, "location": {"lat": -35.392409, "lng": 149.089645}, "accessibility": {"wheelchair": "none"}}, {"id": "1360", "name": "Langdon Av after Macbain St", "parent_station": null, "location": {"lat": -35.392319, "lng": 149.089323}, "accessibility": {"wheelchair": "none"}}, {"id": "1361", "name": "Langdon Av before Carr Cr", "parent_station": null, "location": {"lat": -35.392568, "lng": 149.093016}, "accessibility": {"wheelchair": "none"}}, {"id": "1362", "name": "Langdon Av before Billson Pl", "parent_station": null, "location": {"lat": -35.392174, "lng": 149.093685}, "accessibility": {"wheelchair": "none"}}, {"id": "1363", "name": "Wanniassa Hills PS Langdon Av", "parent_station": null, "location": {"lat": -35.392151, "lng": 149.095783}, "accessibility": {"wheelchair": "none"}}, {"id": "1364", "name": "Langdon Av opp Wanniassa Hills PS", "parent_station": null, "location": {"lat": -35.392879, "lng": 149.09656}, "accessibility": {"wheelchair": "none"}}, {"id": "1365", "name": "Langdon Av after Gaunson Cr", "parent_station": null, "location": {"lat": -35.396342, "lng": 149.096387}, "accessibility": {"wheelchair": "none"}}, {"id": "1366", "name": "Langdon Av after Kirkton St", "parent_station": null, "location": {"lat": -35.396096, "lng": 149.096231}, "accessibility": {"wheelchair": "none"}}, {"id": "1367", "name": "Langdon Av before 2nd Brunton St", "parent_station": null, "location": {"lat": -35.397873, "lng": 149.097417}, "accessibility": {"wheelchair": "none"}}, {"id": "1368", "name": "Langdon Av before Longmore Cr", "parent_station": null, "location": {"lat": -35.397754, "lng": 149.097416}, "accessibility": {"wheelchair": "none"}}, {"id": "1369", "name": "Langdon Av before Embling St", "parent_station": null, "location": {"lat": -35.40037, "lng": 149.097398}, "accessibility": {"wheelchair": "none"}}, {"id": "1370", "name": "Langdon Av before Bussau Cl", "parent_station": null, "location": {"lat": -35.400017, "lng": 149.097735}, "accessibility": {"wheelchair": "none"}}, {"id": "1371", "name": "Drakeford Dr after Mortimer Lewis Dr", "parent_station": null, "location": {"lat": -35.402577, "lng": 149.074423}, "accessibility": {"wheelchair": "none"}}, {"id": "1372", "name": "Drakeford Dr before Taverner St", "parent_station": null, "location": {"lat": -35.401228, "lng": 149.074572}, "accessibility": {"wheelchair": "none"}}, {"id": "1373", "name": "Drakeford Dr after Taverner St", "parent_station": null, "location": {"lat": -35.408028, "lng": 149.073539}, "accessibility": {"wheelchair": "none"}}, {"id": "1374", "name": "Drakeford Dr after Soward Way", "parent_station": null, "location": {"lat": -35.408348, "lng": 149.073076}, "accessibility": {"wheelchair": "none"}}, {"id": "1375", "name": "Athllon Dr before Reed St", "parent_station": null, "location": {"lat": -35.418158, "lng": 149.064405}, "accessibility": {"wheelchair": "none"}}, {"id": "1376", "name": "Hindmarsh Dr after Ball St", "parent_station": null, "location": {"lat": -35.348742, "lng": 149.08783}, "accessibility": {"wheelchair": "none"}}, {"id": "1377", "name": "Sainsbury St after Longmore Cr", "parent_station": null, "location": {"lat": -35.387071, "lng": 149.097437}, "accessibility": {"wheelchair": "none"}}, {"id": "1378", "name": "Sainsbury St before Longmore Cr", "parent_station": null, "location": {"lat": -35.387174, "lng": 149.097611}, "accessibility": {"wheelchair": "none"}}, {"id": "1400", "name": "Newman-Morris Cct opp 2nd Connibere Cr", "parent_station": null, "location": {"lat": -35.407481, "lng": 149.0757}, "accessibility": {"wheelchair": "none"}}, {"id": "1401", "name": "Newman-Morris Cct before 1st Connibere Cr", "parent_station": null, "location": {"lat": -35.407218, "lng": 149.07569}, "accessibility": {"wheelchair": "none"}}, {"id": "1402", "name": "Newman-Morris Cct before 1st Singleton Cr", "parent_station": null, "location": {"lat": -35.410852, "lng": 149.075058}, "accessibility": {"wheelchair": "none"}}, {"id": "1403", "name": "77 Newman-Morris Cct", "parent_station": null, "location": {"lat": -35.410988, "lng": 149.075168}, "accessibility": {"wheelchair": "none"}}, {"id": "1404", "name": "Newman-Morris Cct after 1st Collocott Cr", "parent_station": null, "location": {"lat": -35.413455, "lng": 149.076071}, "accessibility": {"wheelchair": "none"}}, {"id": "1405", "name": "Newman-Morris Cct opp 2nd Collocott Cr", "parent_station": null, "location": {"lat": -35.413535, "lng": 149.076332}, "accessibility": {"wheelchair": "none"}}, {"id": "1406", "name": "Newman-Morris Cct before 2nd Cuthbertson Cr", "parent_station": null, "location": {"lat": -35.412838, "lng": 149.079376}, "accessibility": {"wheelchair": "none"}}, {"id": "1407", "name": "Newman-Morris Cct before 2nd Maconochie Cr", "parent_station": null, "location": {"lat": -35.413294, "lng": 149.078626}, "accessibility": {"wheelchair": "none"}}, {"id": "1408", "name": "Lakeside Leisure Centre Anketell St", "parent_station": null, "location": {"lat": -35.41215, "lng": 149.063186}, "accessibility": {"wheelchair": "none"}}, {"id": "1409", "name": "Learmonth Dr after Vansittart Cr", "parent_station": null, "location": {"lat": -35.401969, "lng": 149.060866}, "accessibility": {"wheelchair": "none"}}, {"id": "1410", "name": "Learmonth Dr opp Vansittart Cr", "parent_station": null, "location": {"lat": -35.402084, "lng": 149.060775}, "accessibility": {"wheelchair": "none"}}, {"id": "1411", "name": "Vansittart Cr after 1st Stieglitz Cct", "parent_station": null, "location": {"lat": -35.400156, "lng": 149.062603}, "accessibility": {"wheelchair": "none"}}, {"id": "1412", "name": "Vansittart Cr after 1st Ragless Cct", "parent_station": null, "location": {"lat": -35.400089, "lng": 149.062464}, "accessibility": {"wheelchair": "none"}}, {"id": "1413", "name": "Learmonth Dr after Athllon Dr", "parent_station": null, "location": {"lat": -35.403181, "lng": 149.063357}, "accessibility": {"wheelchair": "none"}}, {"id": "1414", "name": "Learmonth Dr before Athllon Dr", "parent_station": null, "location": {"lat": -35.403084, "lng": 149.06352}, "accessibility": {"wheelchair": "none"}}, {"id": "1415", "name": "Vansittart Cr opp Pinkerton Cct", "parent_station": null, "location": {"lat": -35.397225, "lng": 149.064054}, "accessibility": {"wheelchair": "none"}}, {"id": "1416", "name": "Vansittart Cr before Pinkerton Cct", "parent_station": null, "location": {"lat": -35.397462, "lng": 149.064247}, "accessibility": {"wheelchair": "none"}}, {"id": "1417", "name": "Tuggeranong Pkwy after Sulwood Dr", "parent_station": null, "location": {"lat": -35.373045, "lng": 149.056882}, "accessibility": {"wheelchair": "none"}}, {"id": "1418", "name": "Tuggeranong Pkwy before Sulwood Dr", "parent_station": null, "location": {"lat": -35.372604, "lng": 149.057409}, "accessibility": {"wheelchair": "none"}}, {"id": "1435", "name": "Clive Steele Av before 2nd Priddle St", "parent_station": null, "location": {"lat": -35.410718, "lng": 149.100686}, "accessibility": {"wheelchair": "none"}}, {"id": "1436", "name": "Clive Steele Av opp 1st Priddle St", "parent_station": null, "location": {"lat": -35.410892, "lng": 149.100719}, "accessibility": {"wheelchair": "none"}}, {"id": "1437", "name": "Clive Steele Av opp 2nd Brain St", "parent_station": null, "location": {"lat": -35.41236, "lng": 149.100027}, "accessibility": {"wheelchair": "none"}}, {"id": "1438", "name": "Clive Steele Av before 2nd Brain St", "parent_station": null, "location": {"lat": -35.412885, "lng": 149.099366}, "accessibility": {"wheelchair": "none"}}, {"id": "1439", "name": "Clive Steele Av before 2nd Fraenkel St", "parent_station": null, "location": {"lat": -35.414112, "lng": 149.097043}, "accessibility": {"wheelchair": "none"}}, {"id": "1440", "name": "Clive Steele Av before 2nd Coode St", "parent_station": null, "location": {"lat": -35.414441, "lng": 149.09674}, "accessibility": {"wheelchair": "none"}}, {"id": "1441", "name": "Monash Shops Cockcroft Av", "parent_station": null, "location": {"lat": -35.417059, "lng": 149.098237}, "accessibility": {"wheelchair": "none"}}, {"id": "1442", "name": "Cockcroft Av opp Monash Shops", "parent_station": null, "location": {"lat": -35.416742, "lng": 149.098198}, "accessibility": {"wheelchair": "none"}}, {"id": "1443", "name": "Cockcroft Av before Kneeshaw St", "parent_station": null, "location": {"lat": -35.419885, "lng": 149.097304}, "accessibility": {"wheelchair": "none"}}, {"id": "1444", "name": "Goodwin Aged Care Cockcroft Av", "parent_station": null, "location": {"lat": -35.419751, "lng": 149.097043}, "accessibility": {"wheelchair": "none"}}, {"id": "1445", "name": "Charleston St after 2nd William Hudson Cr", "parent_station": null, "location": {"lat": -35.416281, "lng": 149.079178}, "accessibility": {"wheelchair": "none"}}, {"id": "1446", "name": "Charleston St after Blakey Cl", "parent_station": null, "location": {"lat": -35.416263, "lng": 149.07936}, "accessibility": {"wheelchair": "none"}}, {"id": "1447", "name": "Charleston St before 1st William Hudson Cr", "parent_station": null, "location": {"lat": -35.418192, "lng": 149.082438}, "accessibility": {"wheelchair": "none"}}, {"id": "1448", "name": "Charleston St after Hallstrom Cct", "parent_station": null, "location": {"lat": -35.41809, "lng": 149.082409}, "accessibility": {"wheelchair": "none"}}, {"id": "1449", "name": "Clive Steele Av before 1st Balsillie Cr", "parent_station": null, "location": {"lat": -35.416677, "lng": 149.086218}, "accessibility": {"wheelchair": "none"}}, {"id": "1450", "name": "Clive Steele Av opp 2nd Balsillie Cr", "parent_station": null, "location": {"lat": -35.41661, "lng": 149.086533}, "accessibility": {"wheelchair": "none"}}, {"id": "1451", "name": "Clive Steele Av before 2nd Balsillie Cr", "parent_station": null, "location": {"lat": -35.416239, "lng": 149.088005}, "accessibility": {"wheelchair": "none"}}, {"id": "1452", "name": "Clive Steele Av before Harkness St", "parent_station": null, "location": {"lat": -35.416298, "lng": 149.088358}, "accessibility": {"wheelchair": "none"}}, {"id": "1453", "name": "Monash PS Corlette Cr", "parent_station": null, "location": {"lat": -35.41534, "lng": 149.089569}, "accessibility": {"wheelchair": "none"}}, {"id": "1454", "name": "Corlette Cr after Hebblewhite St", "parent_station": null, "location": {"lat": -35.414164, "lng": 149.087577}, "accessibility": {"wheelchair": "none"}}, {"id": "1456", "name": "Corlette Cr opp Monash PS", "parent_station": null, "location": {"lat": -35.414787, "lng": 149.088975}, "accessibility": {"wheelchair": "none"}}, {"id": "1457", "name": "Corlette Cr opp Hebblewhite St", "parent_station": null, "location": {"lat": -35.414229, "lng": 149.087272}, "accessibility": {"wheelchair": "none"}}, {"id": "1458", "name": "Hebblewhite St after Forwood St", "parent_station": null, "location": {"lat": -35.411989, "lng": 149.087664}, "accessibility": {"wheelchair": "none"}}, {"id": "1459", "name": "Hebblewhite St before Burnell Pl", "parent_station": null, "location": {"lat": -35.412096, "lng": 149.087407}, "accessibility": {"wheelchair": "none"}}, {"id": "1460", "name": "Harricks Cr after 1st Michell St", "parent_station": null, "location": {"lat": -35.410713, "lng": 149.091178}, "accessibility": {"wheelchair": "none"}}, {"id": "1461", "name": "Harricks Cr opp 1st Michell St", "parent_station": null, "location": {"lat": -35.410765, "lng": 149.090883}, "accessibility": {"wheelchair": "none"}}, {"id": "1462", "name": "Harricks Cr after 1st Cracknell St", "parent_station": null, "location": {"lat": -35.408807, "lng": 149.092679}, "accessibility": {"wheelchair": "none"}}, {"id": "1463", "name": "Harricks Cr opp 2nd Cracknell St", "parent_station": null, "location": {"lat": -35.408936, "lng": 149.092449}, "accessibility": {"wheelchair": "none"}}, {"id": "1464", "name": "MacKinnon St opp MacKillop College", "parent_station": null, "location": {"lat": -35.405373, "lng": 149.089506}, "accessibility": {"wheelchair": "none"}}, {"id": "1465", "name": "MacKillop College MacKinnon St SSO", "parent_station": null, "location": {"lat": -35.40532, "lng": 149.08965}, "accessibility": {"wheelchair": "none"}}, {"id": "1466", "name": "Wheeler Cr after Sternberg Cr", "parent_station": null, "location": {"lat": -35.402337, "lng": 149.091783}, "accessibility": {"wheelchair": "none"}}, {"id": "1467", "name": "Wheeler Cr before Hanna St", "parent_station": null, "location": {"lat": -35.400526, "lng": 149.089227}, "accessibility": {"wheelchair": "none"}}, {"id": "1468", "name": "Wheeler Cr before Sternberg Cr", "parent_station": null, "location": {"lat": -35.402094, "lng": 149.091797}, "accessibility": {"wheelchair": "none"}}, {"id": "1469", "name": "Wheeler Cr opp Hanna St", "parent_station": null, "location": {"lat": -35.400409, "lng": 149.089292}, "accessibility": {"wheelchair": "none"}}, {"id": "1470", "name": "Wheeler Cr after Guthridge Cr", "parent_station": null, "location": {"lat": -35.398153, "lng": 149.088372}, "accessibility": {"wheelchair": "none"}}, {"id": "1471", "name": "Wheeler Cr after Kirkton St", "parent_station": null, "location": {"lat": -35.398117, "lng": 149.088481}, "accessibility": {"wheelchair": "none"}}, {"id": "1472", "name": "Wanniassa HS Wheeler Cr", "parent_station": null, "location": {"lat": -35.394803, "lng": 149.086693}, "accessibility": {"wheelchair": "none"}}, {"id": "1473", "name": "Wheeler Cr opp Wanniassa HS", "parent_station": null, "location": {"lat": -35.394653, "lng": 149.086594}, "accessibility": {"wheelchair": "none"}}, {"id": "1474", "name": "Kirkton St before Greeves St", "parent_station": null, "location": {"lat": -35.397468, "lng": 149.089956}, "accessibility": {"wheelchair": "none"}}, {"id": "1475", "name": "Kirkton St before Wheeler Cr", "parent_station": null, "location": {"lat": -35.397537, "lng": 149.09017}, "accessibility": {"wheelchair": "none"}}, {"id": "1476", "name": "Kirkton St after 2nd Holden Cr", "parent_station": null, "location": {"lat": -35.397269, "lng": 149.094785}, "accessibility": {"wheelchair": "none"}}, {"id": "1477", "name": "Kirkton St after Embling St", "parent_station": null, "location": {"lat": -35.397309, "lng": 149.094195}, "accessibility": {"wheelchair": "none"}}, {"id": "1478", "name": "Gaunson Cr at Harbison Cr", "parent_station": null, "location": {"lat": -35.395237, "lng": 149.098434}, "accessibility": {"wheelchair": "none"}}, {"id": "1479", "name": "Gaunson Cr opp Harbison Cr", "parent_station": null, "location": {"lat": -35.395123, "lng": 149.098491}, "accessibility": {"wheelchair": "none"}}, {"id": "1480", "name": "Gaunson Cr after 1st Sullivan Cr", "parent_station": null, "location": {"lat": -35.393342, "lng": 149.099628}, "accessibility": {"wheelchair": "none"}}, {"id": "1481", "name": "Gaunson Cr opp 2nd Sullivan Cr", "parent_station": null, "location": {"lat": -35.392723, "lng": 149.09937}, "accessibility": {"wheelchair": "none"}}, {"id": "1482", "name": "Gaunson Cr after Longmore Cr", "parent_station": null, "location": {"lat": -35.390588, "lng": 149.098876}, "accessibility": {"wheelchair": "none"}}, {"id": "1483", "name": "Gaunson Cr before Longmore Cr", "parent_station": null, "location": {"lat": -35.390382, "lng": 149.098851}, "accessibility": {"wheelchair": "none"}}, {"id": "1484", "name": "Longmore Cr after Pyke Pl", "parent_station": null, "location": {"lat": -35.388087, "lng": 149.097982}, "accessibility": {"wheelchair": "none"}}, {"id": "1485", "name": "Longmore Cr before Sainsbury St", "parent_station": null, "location": {"lat": -35.388494, "lng": 149.098303}, "accessibility": {"wheelchair": "none"}}, {"id": "1486", "name": "Clift Cr after Ashley Dr", "parent_station": null, "location": {"lat": -35.424738, "lng": 149.104019}, "accessibility": {"wheelchair": "none"}}, {"id": "1487", "name": "Clift Cr before Ashley Dr", "parent_station": null, "location": {"lat": -35.424897, "lng": 149.104043}, "accessibility": {"wheelchair": "none"}}, {"id": "1488", "name": "29 Clift Cr", "parent_station": null, "location": {"lat": -35.42628, "lng": 149.107056}, "accessibility": {"wheelchair": "none"}}, {"id": "1489", "name": "Clift Cr opp 29", "parent_station": null, "location": {"lat": -35.426372, "lng": 149.107042}, "accessibility": {"wheelchair": "none"}}, {"id": "1490", "name": "Clift Cr before 2nd Kiddle Cr", "parent_station": null, "location": {"lat": -35.427562, "lng": 149.109589}, "accessibility": {"wheelchair": "none"}}, {"id": "1491", "name": "Clift Cr opp 1st Kiddle Cr", "parent_station": null, "location": {"lat": -35.427624, "lng": 149.10978}, "accessibility": {"wheelchair": "none"}}, {"id": "1492", "name": "Clift Cr before Heagney Cr", "parent_station": null, "location": {"lat": -35.426282, "lng": 149.112288}, "accessibility": {"wheelchair": "none"}}, {"id": "1493", "name": "Clift Cr opp Heagney Cr", "parent_station": null, "location": {"lat": -35.426308, "lng": 149.112478}, "accessibility": {"wheelchair": "none"}}, {"id": "1494", "name": "Heagney Cr before Beattie Cr", "parent_station": null, "location": {"lat": -35.425383, "lng": 149.114077}, "accessibility": {"wheelchair": "none"}}, {"id": "1495", "name": "Heagney Cr before 2nd Mclorinan St", "parent_station": null, "location": {"lat": -35.425238, "lng": 149.114285}, "accessibility": {"wheelchair": "none"}}, {"id": "1496", "name": "Beattie Cr before 2nd McBurney Cr", "parent_station": null, "location": {"lat": -35.422762, "lng": 149.112019}, "accessibility": {"wheelchair": "none"}}, {"id": "1497", "name": "Beattie Cr before Swanton St", "parent_station": null, "location": {"lat": -35.423058, "lng": 149.112178}, "accessibility": {"wheelchair": "none"}}, {"id": "1498", "name": "Beattie Cr after Hemmings Cr", "parent_station": null, "location": {"lat": -35.420984, "lng": 149.113621}, "accessibility": {"wheelchair": "none"}}, {"id": "1499", "name": "Beattie Cr opp Hemmings Cr", "parent_station": null, "location": {"lat": -35.420965, "lng": 149.113865}, "accessibility": {"wheelchair": "none"}}, {"id": "1500", "name": "Beattie Cr after Goldstein Cr", "parent_station": null, "location": {"lat": -35.418313, "lng": 149.115569}, "accessibility": {"wheelchair": "none"}}, {"id": "1501", "name": "Beattie Cr after 2nd Longman St", "parent_station": null, "location": {"lat": -35.418601, "lng": 149.115219}, "accessibility": {"wheelchair": "none"}}, {"id": "1504", "name": "Gowrie Shops Castleton Cr", "parent_station": null, "location": {"lat": -35.41387, "lng": 149.109327}, "accessibility": {"wheelchair": "none"}}, {"id": "1505", "name": "Castleton Cr opp Gowrie Shops", "parent_station": null, "location": {"lat": -35.414013, "lng": 149.109397}, "accessibility": {"wheelchair": "none"}}, {"id": "1506", "name": "Castleton Cr after 2nd Wheatley St", "parent_station": null, "location": {"lat": -35.412066, "lng": 149.105807}, "accessibility": {"wheelchair": "none"}}, {"id": "1507", "name": "Castleton Cr opp 1st Wheatley St", "parent_station": null, "location": {"lat": -35.411981, "lng": 149.105556}, "accessibility": {"wheelchair": "none"}}, {"id": "1508", "name": "Castleton Cr before Easterbrook Pl", "parent_station": null, "location": {"lat": -35.409963, "lng": 149.104886}, "accessibility": {"wheelchair": "none"}}, {"id": "1509", "name": "Castleton Cr opp Easterbrook Pl", "parent_station": null, "location": {"lat": -35.41009, "lng": 149.104967}, "accessibility": {"wheelchair": "none"}}, {"id": "1510", "name": "Castleton Cr after Farcomb Pl", "parent_station": null, "location": {"lat": -35.407349, "lng": 149.106466}, "accessibility": {"wheelchair": "none"}}, {"id": "1511", "name": "Castleton Cr after Middleton Cct", "parent_station": null, "location": {"lat": -35.407182, "lng": 149.106505}, "accessibility": {"wheelchair": "none"}}, {"id": "1512", "name": "Castleton Cr after Peeler Pl", "parent_station": null, "location": {"lat": -35.406056, "lng": 149.111056}, "accessibility": {"wheelchair": "none"}}, {"id": "1513", "name": "Castleton Cr before Wray Pl", "parent_station": null, "location": {"lat": -35.406197, "lng": 149.111205}, "accessibility": {"wheelchair": "none"}}, {"id": "1529", "name": "Bugden Av after Mactier Pl", "parent_station": null, "location": {"lat": -35.414471, "lng": 149.104533}, "accessibility": {"wheelchair": "none"}}, {"id": "1530", "name": "Bugden Av opp Denehy Pl", "parent_station": null, "location": {"lat": -35.414685, "lng": 149.104606}, "accessibility": {"wheelchair": "none"}}, {"id": "1531", "name": "Bugden Av after 1st Dalziel St", "parent_station": null, "location": {"lat": -35.417136, "lng": 149.104855}, "accessibility": {"wheelchair": "none"}}, {"id": "1532", "name": "Bugden Av after 1st Stacy St", "parent_station": null, "location": {"lat": -35.416935, "lng": 149.104787}, "accessibility": {"wheelchair": "none"}}, {"id": "1533", "name": "Bugden Av after 2nd Dalziel St", "parent_station": null, "location": {"lat": -35.418079, "lng": 149.107385}, "accessibility": {"wheelchair": "none"}}, {"id": "1534", "name": "Bugden Av before 1st Ingram St", "parent_station": null, "location": {"lat": -35.417955, "lng": 149.107856}, "accessibility": {"wheelchair": "none"}}, {"id": "1535", "name": "Bugden Av after Beardsmore Pl", "parent_station": null, "location": {"lat": -35.415811, "lng": 149.10984}, "accessibility": {"wheelchair": "none"}}, {"id": "1536", "name": "Bugden Av before 2nd Galleghan Cct", "parent_station": null, "location": {"lat": -35.415728, "lng": 149.110049}, "accessibility": {"wheelchair": "none"}}, {"id": "1537", "name": "Norriss St after 1st Woodburn St", "parent_station": null, "location": {"lat": -35.416852, "lng": 149.117772}, "accessibility": {"wheelchair": "none"}}, {"id": "1538", "name": "Norriss St opp 2nd Woodburn St", "parent_station": null, "location": {"lat": -35.416912, "lng": 149.117961}, "accessibility": {"wheelchair": "none"}}, {"id": "1539", "name": "Norriss St opp Caroline Chisholm Senior School", "parent_station": null, "location": {"lat": -35.416431, "lng": 149.121032}, "accessibility": {"wheelchair": "none"}}, {"id": "1540", "name": "Caroline Chisholm Senior School Norriss St", "parent_station": null, "location": {"lat": -35.416575, "lng": 149.120836}, "accessibility": {"wheelchair": "none"}}, {"id": "1542", "name": "Hambidge Cr before Proctor St", "parent_station": null, "location": {"lat": -35.416041, "lng": 149.130189}, "accessibility": {"wheelchair": "none"}}, {"id": "1543", "name": "Hambidge Cr opp 64", "parent_station": null, "location": {"lat": -35.418268, "lng": 149.127212}, "accessibility": {"wheelchair": "none"}}, {"id": "1544", "name": "64 Hambidge Cr", "parent_station": null, "location": {"lat": -35.418097, "lng": 149.127335}, "accessibility": {"wheelchair": "none"}}, {"id": "1545", "name": "Hambidge Cr after 1st Alice Jackson Cr", "parent_station": null, "location": {"lat": -35.416602, "lng": 149.129855}, "accessibility": {"wheelchair": "none"}}, {"id": "1546", "name": "Baskerville St after Hambidge Cr", "parent_station": null, "location": {"lat": -35.41953, "lng": 149.125425}, "accessibility": {"wheelchair": "none"}}, {"id": "1547", "name": "Baskerville St before Hambidge Cr", "parent_station": null, "location": {"lat": -35.419584, "lng": 149.125331}, "accessibility": {"wheelchair": "none"}}, {"id": "1548", "name": "Baskerville St before 1st Laughton St", "parent_station": null, "location": {"lat": -35.422051, "lng": 149.12439}, "accessibility": {"wheelchair": "none"}}, {"id": "1549", "name": "Baskerville St opp 2nd Laughton St", "parent_station": null, "location": {"lat": -35.421961, "lng": 149.124524}, "accessibility": {"wheelchair": "none"}}, {"id": "1550", "name": "Heagney Cr after Alston St", "parent_station": null, "location": {"lat": -35.424281, "lng": 149.123477}, "accessibility": {"wheelchair": "none"}}, {"id": "1551", "name": "Heagney Cr after 1st Muntz St", "parent_station": null, "location": {"lat": -35.424407, "lng": 149.123683}, "accessibility": {"wheelchair": "none"}}, {"id": "1552", "name": "Heagney Cr after Goldstein Cr", "parent_station": null, "location": {"lat": -35.424252, "lng": 149.121332}, "accessibility": {"wheelchair": "none"}}, {"id": "1553", "name": "Heagney Cr before 1st Moffin St", "parent_station": null, "location": {"lat": -35.424343, "lng": 149.121259}, "accessibility": {"wheelchair": "none"}}, {"id": "1554", "name": "Heagney Cr after 2nd Mofflin St", "parent_station": null, "location": {"lat": -35.424314, "lng": 149.117442}, "accessibility": {"wheelchair": "none"}}, {"id": "1555", "name": "Heagney Cr opp 2nd McLorinan St", "parent_station": null, "location": {"lat": -35.4242, "lng": 149.117209}, "accessibility": {"wheelchair": "none"}}, {"id": "1556", "name": "Richardson Shops Clift Cr", "parent_station": null, "location": {"lat": -35.427259, "lng": 149.115792}, "accessibility": {"wheelchair": "none"}}, {"id": "1557", "name": "Clift Cr opp Meeson St", "parent_station": null, "location": {"lat": -35.428668, "lng": 149.118497}, "accessibility": {"wheelchair": "none"}}, {"id": "1558", "name": "Clift Cr before Meeson St", "parent_station": null, "location": {"lat": -35.428604, "lng": 149.11858}, "accessibility": {"wheelchair": "none"}}, {"id": "1559", "name": "Clift Cr opp Richardson Shops", "parent_station": null, "location": {"lat": -35.427334, "lng": 149.116004}, "accessibility": {"wheelchair": "none"}}, {"id": "1560", "name": "Louisa Lawson Cr before Gellatly Pl", "parent_station": null, "location": {"lat": -35.417691, "lng": 149.137217}, "accessibility": {"wheelchair": "none"}}, {"id": "1561", "name": "Louisa Lawson Cr after 1st May Maxwell Cr", "parent_station": null, "location": {"lat": -35.4176, "lng": 149.13726}, "accessibility": {"wheelchair": "none"}}, {"id": "1562", "name": "Louisa Lawson Cr after Fenston Pl", "parent_station": null, "location": {"lat": -35.416144, "lng": 149.139438}, "accessibility": {"wheelchair": "none"}}, {"id": "1563", "name": "Louisa Lawson Cr opp Fenston Pl", "parent_station": null, "location": {"lat": -35.416088, "lng": 149.139358}, "accessibility": {"wheelchair": "none"}}, {"id": "1564", "name": "Louisa Lawson Cr before 1st Aronson Cr", "parent_station": null, "location": {"lat": -35.412316, "lng": 149.137509}, "accessibility": {"wheelchair": "none"}}, {"id": "1565", "name": "Louisa Lawson Cr after 2nd Willoughby Cr", "parent_station": null, "location": {"lat": -35.412259, "lng": 149.1374}, "accessibility": {"wheelchair": "none"}}, {"id": "1566", "name": "Louisa Lawson Cr before 2nd Willoughby Cr", "parent_station": null, "location": {"lat": -35.412511, "lng": 149.135275}, "accessibility": {"wheelchair": "none"}}, {"id": "1567", "name": "Louisa Lawson Cr after 1st Aronson Cr", "parent_station": null, "location": {"lat": -35.412578, "lng": 149.135104}, "accessibility": {"wheelchair": "none"}}, {"id": "1568", "name": "Louisa Lawson Cr before 2nd Aronson Cr", "parent_station": null, "location": {"lat": -35.413875, "lng": 149.133002}, "accessibility": {"wheelchair": "none"}}, {"id": "1569", "name": "Louisa Lawson Cr before Litchfield Pl", "parent_station": null, "location": {"lat": -35.413853, "lng": 149.132904}, "accessibility": {"wheelchair": "none"}}, {"id": "1576", "name": "Duggan St after Outtrim Av", "parent_station": null, "location": {"lat": -35.436524, "lng": 149.097743}, "accessibility": {"wheelchair": "none"}}, {"id": "1577", "name": "Duggan St before Outtrim Av", "parent_station": null, "location": {"lat": -35.436485, "lng": 149.097607}, "accessibility": {"wheelchair": "none"}}, {"id": "1596", "name": "Newman-Morris Cct before Taverner St", "parent_station": null, "location": {"lat": -35.404247, "lng": 149.077479}, "accessibility": {"wheelchair": "none"}}, {"id": "1597", "name": "Newman-Morris Cct after Taverner St", "parent_station": null, "location": {"lat": -35.404262, "lng": 149.077609}, "accessibility": {"wheelchair": "none"}}, {"id": "1599", "name": "McBryde Cr opp Trinity Christian School", "parent_station": null, "location": {"lat": -35.407416, "lng": 149.087085}, "accessibility": {"wheelchair": "none"}}, {"id": "1600", "name": "Trinity Christian School McBryde Cr", "parent_station": null, "location": {"lat": -35.407527, "lng": 149.086841}, "accessibility": {"wheelchair": "none"}}, {"id": "1606", "name": "Calwell HS Casey Cr", "parent_station": null, "location": {"lat": -35.441239, "lng": 149.116884}, "accessibility": {"wheelchair": "none"}}, {"id": "1608", "name": "St Clares College McMillan Cr SSO", "parent_station": null, "location": {"lat": -35.323219, "lng": 149.146183}, "accessibility": {"wheelchair": "none"}}, {"id": "1609", "name": "St Edmunds College McMillan Cr SSO", "parent_station": null, "location": {"lat": -35.323215, "lng": 149.146033}, "accessibility": {"wheelchair": "none"}}, {"id": "1615", "name": "Holy Family PS Castleton Cr", "parent_station": null, "location": {"lat": -35.410953, "lng": 149.115701}, "accessibility": {"wheelchair": "none"}}, {"id": "1630", "name": "Laurens St before McBryde Cr", "parent_station": null, "location": {"lat": -35.406727, "lng": 149.08429}, "accessibility": {"wheelchair": "none"}}, {"id": "1631", "name": "Laurens St after McBryde Cr", "parent_station": null, "location": {"lat": -35.40687, "lng": 149.084323}, "accessibility": {"wheelchair": "none"}}, {"id": "1637", "name": "Weston Creek Terminus Hindmarsh Dr", "parent_station": null, "location": {"lat": -35.343932, "lng": 149.028141}, "accessibility": {"wheelchair": "none"}}, {"id": "1638", "name": "Forsythe St before Pockett Av", "parent_station": null, "location": {"lat": -35.47449, "lng": 149.094704}, "accessibility": {"wheelchair": "none"}}, {"id": "1639", "name": "Forsythe St after Pockett Av", "parent_station": null, "location": {"lat": -35.474525, "lng": 149.094926}, "accessibility": {"wheelchair": "none"}}, {"id": "1641", "name": "Lanyon Marketplace Terminus North", "parent_station": null, "location": {"lat": -35.45616, "lng": 149.092291}, "accessibility": {"wheelchair": "none"}}, {"id": "1642", "name": "Barraclough Cr opp Goodwin Village", "parent_station": null, "location": {"lat": -35.416332, "lng": 149.096259}, "accessibility": {"wheelchair": "none"}}, {"id": "1649", "name": "Lawrence Wackett Cr before Tharwa Dr", "parent_station": null, "location": {"lat": -35.442646, "lng": 149.122636}, "accessibility": {"wheelchair": "none"}}, {"id": "1650", "name": "Lawrence Wackett Cr after Scantlebury Cr", "parent_station": null, "location": {"lat": -35.442652, "lng": 149.122792}, "accessibility": {"wheelchair": "none"}}, {"id": "1651", "name": "Goodwin Village Barraclough Cr", "parent_station": null, "location": {"lat": -35.41628, "lng": 149.095901}, "accessibility": {"wheelchair": "none"}}, {"id": "1660", "name": "Barr Smith Av after 1st Derrington Cr", "parent_station": null, "location": {"lat": -35.432228, "lng": 149.07665}, "accessibility": {"wheelchair": "none"}}, {"id": "1661", "name": "Barr Smith Av before 2nd Derrington Cr", "parent_station": null, "location": {"lat": -35.430812, "lng": 149.074816}, "accessibility": {"wheelchair": "none"}}, {"id": "1666", "name": "Gordon PS Knoke Av", "parent_station": null, "location": {"lat": -35.458172, "lng": 149.086239}, "accessibility": {"wheelchair": "none"}}, {"id": "1667", "name": "Duggan St before Downard St", "parent_station": null, "location": {"lat": -35.438992, "lng": 149.098285}, "accessibility": {"wheelchair": "none"}}, {"id": "1668", "name": "Duggan St before Pennington Cr", "parent_station": null, "location": {"lat": -35.439074, "lng": 149.0982}, "accessibility": {"wheelchair": "none"}}, {"id": "1669", "name": "Clive Steele Av opp 187", "parent_station": null, "location": {"lat": -35.41987, "lng": 149.085653}, "accessibility": {"wheelchair": "none"}}, {"id": "1670", "name": "189 Clive Steele Av", "parent_station": null, "location": {"lat": -35.419968, "lng": 149.085854}, "accessibility": {"wheelchair": "none"}}, {"id": "1671", "name": "Clive Steele Av opp Falconer St", "parent_station": null, "location": {"lat": -35.421359, "lng": 149.088592}, "accessibility": {"wheelchair": "none"}}, {"id": "1672", "name": "Clive Steele Av after Falconer St", "parent_station": null, "location": {"lat": -35.421377, "lng": 149.08875}, "accessibility": {"wheelchair": "none"}}, {"id": "1675", "name": "Forsythe St after Bellchambers Cr", "parent_station": null, "location": {"lat": -35.475141, "lng": 149.097619}, "accessibility": {"wheelchair": "none"}}, {"id": "1676", "name": "Forsythe St after 1st Smeaton Cct", "parent_station": null, "location": {"lat": -35.474882, "lng": 149.097154}, "accessibility": {"wheelchair": "none"}}, {"id": "1677", "name": "Forsythe St after 2nd Olive Pink Cr", "parent_station": null, "location": {"lat": -35.476552, "lng": 149.099793}, "accessibility": {"wheelchair": "none"}}, {"id": "1678", "name": "Forsythe St after 2nd Smeaton Cct", "parent_station": null, "location": {"lat": -35.476443, "lng": 149.099815}, "accessibility": {"wheelchair": "none"}}, {"id": "1679", "name": "Forsythe St after 2nd Alison Ashby Cr", "parent_station": null, "location": {"lat": -35.475241, "lng": 149.101068}, "accessibility": {"wheelchair": "none"}}, {"id": "1680", "name": "73 Forsythe St", "parent_station": null, "location": {"lat": -35.47499, "lng": 149.100909}, "accessibility": {"wheelchair": "none"}}, {"id": "1681", "name": "Paperbark St after Galbraith Cl", "parent_station": null, "location": {"lat": -35.472399, "lng": 149.103205}, "accessibility": {"wheelchair": "none"}}, {"id": "1682", "name": "Paperbark St after Troughton St", "parent_station": null, "location": {"lat": -35.472405, "lng": 149.103104}, "accessibility": {"wheelchair": "none"}}, {"id": "1683", "name": "Paperbark St before 2nd Kettlewell Cr", "parent_station": null, "location": {"lat": -35.469199, "lng": 149.104669}, "accessibility": {"wheelchair": "none"}}, {"id": "1684", "name": "Paperbark St opp 1st Kettlewell Cr", "parent_station": null, "location": {"lat": -35.469855, "lng": 149.104424}, "accessibility": {"wheelchair": "none"}}, {"id": "1685", "name": "Paperbark St after 1st Kettlewell Cr", "parent_station": null, "location": {"lat": -35.468349, "lng": 149.105689}, "accessibility": {"wheelchair": "none"}}, {"id": "1686", "name": "Paperbark St before Jane Sutherland St", "parent_station": null, "location": {"lat": -35.468242, "lng": 149.105985}, "accessibility": {"wheelchair": "none"}}, {"id": "1687", "name": "Templestowe Av after Eaglemont Rt", "parent_station": null, "location": {"lat": -35.463891, "lng": 149.111349}, "accessibility": {"wheelchair": "none"}}, {"id": "1688", "name": "Templestowe Av opp Eaglemont Rt", "parent_station": null, "location": {"lat": -35.46383, "lng": 149.111208}, "accessibility": {"wheelchair": "none"}}, {"id": "1689", "name": "Templestowe Av after 2nd Barringer St", "parent_station": null, "location": {"lat": -35.462639, "lng": 149.109789}, "accessibility": {"wheelchair": "none"}}, {"id": "1690", "name": "Templestowe Av opp 1st Barringer St", "parent_station": null, "location": {"lat": -35.462751, "lng": 149.109494}, "accessibility": {"wheelchair": "none"}}, {"id": "1691", "name": "Templestowe Av after 1st Barringer St", "parent_station": null, "location": {"lat": -35.462497, "lng": 149.107923}, "accessibility": {"wheelchair": "none"}}, {"id": "1692", "name": "Templestowe Av opp 2nd Barringer St", "parent_station": null, "location": {"lat": -35.462229, "lng": 149.107194}, "accessibility": {"wheelchair": "none"}}, {"id": "1696", "name": "Barr Smith Av opp 2nd Derrington Cr", "parent_station": null, "location": {"lat": -35.43218, "lng": 149.076794}, "accessibility": {"wheelchair": "none"}}, {"id": "1697", "name": "Barr Smith Av opp 1st Derrington Cr", "parent_station": null, "location": {"lat": -35.430952, "lng": 149.075074}, "accessibility": {"wheelchair": "none"}}, {"id": "1698", "name": "Bugden Av opp Holy Family PS", "parent_station": null, "location": {"lat": -35.410042, "lng": 149.118399}, "accessibility": {"wheelchair": "none"}}, {"id": "1699", "name": "Holy Family PS Bugden Av", "parent_station": null, "location": {"lat": -35.410011, "lng": 149.118277}, "accessibility": {"wheelchair": "none"}}, {"id": "1708", "name": "City Interchange Plt 7 Arrivals", "parent_station": null, "location": {"lat": -35.277895, "lng": 149.130764}, "accessibility": {"wheelchair": "none"}}, {"id": "1721", "name": "City Interchange Plt 11 Arrivals", "parent_station": null, "location": {"lat": -35.279332, "lng": 149.130421}, "accessibility": {"wheelchair": "none"}}, {"id": "1723", "name": "City Interchange Arrivals", "parent_station": null, "location": {"lat": -35.278552, "lng": 149.130596}, "accessibility": {"wheelchair": "none"}}, {"id": "1729", "name": "Anthony Rolfe Av after Waghorn St", "parent_station": null, "location": {"lat": -35.18502, "lng": 149.154597}, "accessibility": {"wheelchair": "none"}}, {"id": "1736", "name": "UC Public Hospital Thirriwirri St", "parent_station": null, "location": {"lat": -35.233663, "lng": 149.081939}, "accessibility": {"wheelchair": "none"}}, {"id": "1737", "name": "Thirriwirri St opp UC Public Hospital", "parent_station": null, "location": {"lat": -35.233762, "lng": 149.081085}, "accessibility": {"wheelchair": "none"}}, {"id": "1738", "name": "Thirriwirri St before Allawoona St", "parent_station": null, "location": {"lat": -35.234349, "lng": 149.086534}, "accessibility": {"wheelchair": "none"}}, {"id": "1739", "name": "Thirriwirri St after Allawoona St", "parent_station": null, "location": {"lat": -35.234327, "lng": 149.08627}, "accessibility": {"wheelchair": "none"}}, {"id": "1740", "name": "Drakeford Dr after Athllon Dr", "parent_station": null, "location": {"lat": -35.420123, "lng": 149.075921}, "accessibility": {"wheelchair": "none"}}, {"id": "1741", "name": "Drakeford Dr before Isabella Dr", "parent_station": null, "location": {"lat": -35.420965, "lng": 149.076646}, "accessibility": {"wheelchair": "none"}}, {"id": "1742", "name": "St Monicas PS Moynihan St", "parent_station": null, "location": {"lat": -35.213616, "lng": 149.061044}, "accessibility": {"wheelchair": "none"}}, {"id": "1743", "name": "Lyneham PS Brigalow St", "parent_station": null, "location": {"lat": -35.250549, "lng": 149.126067}, "accessibility": {"wheelchair": "none"}}, {"id": "1749", "name": "Noorooma St before Ellerston Av", "parent_station": null, "location": {"lat": -35.428822, "lng": 149.088309}, "accessibility": {"wheelchair": "none"}}, {"id": "1766", "name": "Barrier St before Ipswich St", "parent_station": null, "location": {"lat": -35.326234, "lng": 149.167513}, "accessibility": {"wheelchair": "none"}}, {"id": "1768", "name": "Barrier St opp Isa St", "parent_station": null, "location": {"lat": -35.32769, "lng": 149.170232}, "accessibility": {"wheelchair": "none"}}, {"id": "1770", "name": "Barrier St before Pirie St", "parent_station": null, "location": {"lat": -35.326447, "lng": 149.168193}, "accessibility": {"wheelchair": "none"}}, {"id": "1771", "name": "Barrier St before Isa St", "parent_station": null, "location": {"lat": -35.327768, "lng": 149.170613}, "accessibility": {"wheelchair": "none"}}, {"id": "1772", "name": "Newcastle St after Isa St", "parent_station": null, "location": {"lat": -35.325413, "lng": 149.172591}, "accessibility": {"wheelchair": "none"}}, {"id": "1776", "name": "Battye St opp CIT Bruce", "parent_station": null, "location": {"lat": -35.246471, "lng": 149.096966}, "accessibility": {"wheelchair": "none"}}, {"id": "1777", "name": "Langton Cr before King Edward Tce", "parent_station": null, "location": {"lat": -35.298929, "lng": 149.127197}, "accessibility": {"wheelchair": "none"}}, {"id": "1778", "name": "Langton Cr after Newlands St", "parent_station": null, "location": {"lat": -35.299451, "lng": 149.127409}, "accessibility": {"wheelchair": "none"}}, {"id": "1790", "name": "Anthony Rolfe Av after Gundaroo Rd", "parent_station": null, "location": {"lat": -35.182257, "lng": 149.12927}, "accessibility": {"wheelchair": "none"}}, {"id": "1791", "name": "Summerland Cct after Mannheim St", "parent_station": null, "location": {"lat": -35.385383, "lng": 149.073318}, "accessibility": {"wheelchair": "none"}}, {"id": "1792", "name": "Summerland Cct after Mason St", "parent_station": null, "location": {"lat": -35.385438, "lng": 149.073249}, "accessibility": {"wheelchair": "none"}}, {"id": "1801", "name": "Gungahlin Place Plt 3 Arrivals", "parent_station": null, "location": {"lat": -35.18535, "lng": 149.13516}, "accessibility": {"wheelchair": "none"}}, {"id": "1802", "name": "North Weston Park & Ride", "parent_station": null, "location": {"lat": -35.32168, "lng": 149.058296}, "accessibility": {"wheelchair": "none"}}, {"id": "1803", "name": "Tuggeranong Interchange Plt 3", "parent_station": null, "location": {"lat": -35.414656, "lng": 149.065635}, "accessibility": {"wheelchair": "none"}}, {"id": "1804", "name": "Tuggeranong Interchange Plt 4", "parent_station": null, "location": {"lat": -35.414427, "lng": 149.065463}, "accessibility": {"wheelchair": "none"}}, {"id": "1807", "name": "Tuggeranong Interchange Plt 7", "parent_station": null, "location": {"lat": -35.414616, "lng": 149.065388}, "accessibility": {"wheelchair": "none"}}, {"id": "1808", "name": "Tuggeranong Interchange Plt 8", "parent_station": null, "location": {"lat": -35.414923, "lng": 149.065626}, "accessibility": {"wheelchair": "none"}}, {"id": "1809", "name": "Opp North Weston Park & Ride", "parent_station": null, "location": {"lat": -35.322591, "lng": 149.057622}, "accessibility": {"wheelchair": "none"}}, {"id": "1810", "name": "Anketell St opp Lakeside Leisure Centre", "parent_station": null, "location": {"lat": -35.412279, "lng": 149.063313}, "accessibility": {"wheelchair": "none"}}, {"id": "1811", "name": "Theodore Terminus Chippindall Cct", "parent_station": null, "location": {"lat": -35.453058, "lng": 149.118563}, "accessibility": {"wheelchair": "none"}}, {"id": "1812", "name": "Lanyon Marketplace Terminus South", "parent_station": null, "location": {"lat": -35.456354, "lng": 149.092463}, "accessibility": {"wheelchair": "none"}}, {"id": "1815", "name": "Barr Smith Av opp Coombe St", "parent_station": null, "location": {"lat": -35.429014, "lng": 149.074577}, "accessibility": {"wheelchair": "none"}}, {"id": "1816", "name": "Barr Smith Av after Coombe St", "parent_station": null, "location": {"lat": -35.428804, "lng": 149.074735}, "accessibility": {"wheelchair": "none"}}, {"id": "1821", "name": "City West Marcus Clarke St", "parent_station": null, "location": {"lat": -35.279102, "lng": 149.125561}, "accessibility": {"wheelchair": "none"}}, {"id": "1825", "name": "IKEA Majura Rd", "parent_station": null, "location": {"lat": -35.296085, "lng": 149.187705}, "accessibility": {"wheelchair": "none"}}, {"id": "1836", "name": "Ashley Dr before Erindale Dr", "parent_station": null, "location": {"lat": -35.407621, "lng": 149.10241}, "accessibility": {"wheelchair": "none"}}, {"id": "1837", "name": "Ashley Dr after Erindale Dr", "parent_station": null, "location": {"lat": -35.40745, "lng": 149.102719}, "accessibility": {"wheelchair": "none"}}, {"id": "1838", "name": "Ashley Dr opp Bugden Av", "parent_station": null, "location": {"lat": -35.413342, "lng": 149.102358}, "accessibility": {"wheelchair": "none"}}, {"id": "1839", "name": "Ashley Dr before Bugden Av", "parent_station": null, "location": {"lat": -35.41242, "lng": 149.102769}, "accessibility": {"wheelchair": "none"}}, {"id": "1840", "name": "Ashley Dr before Isabella Dr", "parent_station": null, "location": {"lat": -35.424109, "lng": 149.103232}, "accessibility": {"wheelchair": "none"}}, {"id": "1841", "name": "Ashley Dr after Isabella Dr", "parent_station": null, "location": {"lat": -35.42265, "lng": 149.10351}, "accessibility": {"wheelchair": "none"}}, {"id": "1903", "name": "Callaway Cr after 2nd Myles Connell Cr", "parent_station": null, "location": {"lat": -35.461905, "lng": 149.082228}, "accessibility": {"wheelchair": "none"}}, {"id": "1904", "name": "Knoke Av after 1st Mina Wylie Cr", "parent_station": null, "location": {"lat": -35.463902, "lng": 149.083174}, "accessibility": {"wheelchair": "none"}}, {"id": "1905", "name": "Wanniassa Shops Langdon Av", "parent_station": null, "location": {"lat": -35.391052, "lng": 149.086784}, "accessibility": {"wheelchair": "none"}}, {"id": "1906", "name": "Langdon Av opp Wanniassa Shops", "parent_station": null, "location": {"lat": -35.391088, "lng": 149.086937}, "accessibility": {"wheelchair": "none"}}, {"id": "1907", "name": "Carruthers St before Theodore St", "parent_station": null, "location": {"lat": -35.331821, "lng": 149.079279}, "accessibility": {"wheelchair": "none"}}, {"id": "1908", "name": "Wanniassa Park & Ride North", "parent_station": null, "location": {"lat": -35.389589, "lng": 149.084686}, "accessibility": {"wheelchair": "none"}}, {"id": "1909", "name": "Wanniassa Park & Ride South", "parent_station": null, "location": {"lat": -35.390179, "lng": 149.083559}, "accessibility": {"wheelchair": "none"}}, {"id": "2342", "name": "130 Goyder St", "parent_station": null, "location": {"lat": -35.337065, "lng": 149.156005}, "accessibility": {"wheelchair": "none"}}, {"id": "2392", "name": "120 Gladstone St", "parent_station": null, "location": {"lat": -35.32397, "lng": 149.182203}, "accessibility": {"wheelchair": "none"}}, {"id": "2615", "name": "127 Gladstone St", "parent_station": null, "location": {"lat": -35.324015, "lng": 149.182396}, "accessibility": {"wheelchair": "none"}}, {"id": "2675", "name": "142 Beasley St", "parent_station": null, "location": {"lat": -35.372983, "lng": 149.088941}, "accessibility": {"wheelchair": "none"}}, {"id": "3081", "name": "100 Vasey Cr", "parent_station": null, "location": {"lat": -35.289438, "lng": 149.158165}, "accessibility": {"wheelchair": "none"}}, {"id": "4181", "name": "169 William Webb Dr", "parent_station": null, "location": {"lat": -35.219882, "lng": 149.06987}, "accessibility": {"wheelchair": "none"}}, {"id": "4360", "name": "192 Southern Cross Dr", "parent_station": null, "location": {"lat": -35.222979, "lng": 149.030252}, "accessibility": {"wheelchair": "none"}}, {"id": "4377", "name": "19 Archdall St", "parent_station": null, "location": {"lat": -35.208915, "lng": 149.017472}, "accessibility": {"wheelchair": "none"}}, {"id": "6097", "name": "137 Robin Boyd Cr", "parent_station": null, "location": {"lat": -35.146514, "lng": 149.098535}, "accessibility": {"wheelchair": "none"}}]