[{"id": "5003", "name": "Southern Cross Dr before Ratcliffe Cr", "parent_station": null, "location": {"lat": -35.229382, "lng": 149.044452}, "accessibility": {"wheelchair": "none"}}, {"id": "5004", "name": "Baldwin Dr after 1st Maribyrnong Av", "parent_station": null, "location": {"lat": -35.221942, "lng": 149.100391}, "accessibility": {"wheelchair": "none"}}, {"id": "5005", "name": "Baldwin Dr opp 2nd Maribyrnong Av", "parent_station": null, "location": {"lat": -35.221828, "lng": 149.100203}, "accessibility": {"wheelchair": "none"}}, {"id": "5007", "name": "UC High School Kaleen Baldwin Dr", "parent_station": null, "location": {"lat": -35.225262, "lng": 149.100475}, "accessibility": {"wheelchair": "none"}}, {"id": "5008", "name": "Baldwin Dr after Kaleen HS", "parent_station": null, "location": {"lat": -35.22681, "lng": 149.099591}, "accessibility": {"wheelchair": "none"}}, {"id": "5009", "name": "Baldwin Dr before Kaleen HS", "parent_station": null, "location": {"lat": -35.226741, "lng": 149.099511}, "accessibility": {"wheelchair": "none"}}, {"id": "5010", "name": "Baldwin Dr after Stockman Av", "parent_station": null, "location": {"lat": -35.228392, "lng": 149.097453}, "accessibility": {"wheelchair": "none"}}, {"id": "5011", "name": "Baldwin Dr before 2nd Maribyrnong Av", "parent_station": null, "location": {"lat": -35.228101, "lng": 149.09828}, "accessibility": {"wheelchair": "none"}}, {"id": "5012", "name": "Baldwin Dr before Stockman Av", "parent_station": null, "location": {"lat": -35.229893, "lng": 149.094522}, "accessibility": {"wheelchair": "none"}}, {"id": "5017", "name": "Chuculba Cr after 1st Mirrabucca Cr", "parent_station": null, "location": {"lat": -35.209688, "lng": 149.090419}, "accessibility": {"wheelchair": "none"}}, {"id": "5021", "name": "Belconnen Way after Petterd St", "parent_station": null, "location": {"lat": -35.243529, "lng": 149.054637}, "accessibility": {"wheelchair": "none"}}, {"id": "5022", "name": "Kingsford Smith Dr after Wirraway Cr", "parent_station": null, "location": {"lat": -35.231947, "lng": 149.034461}, "accessibility": {"wheelchair": "none"}}, {"id": "5024", "name": "Southern Cross Dr before Ross Smith Cr", "parent_station": null, "location": {"lat": -35.23041, "lng": 149.046512}, "accessibility": {"wheelchair": "none"}}, {"id": "5026", "name": "Kerrigan St opp Douglas Waterhouse Dr", "parent_station": null, "location": {"lat": -35.189391, "lng": 149.021711}, "accessibility": {"wheelchair": "none"}}, {"id": "5028", "name": "Southern Cross Dr after 1st Ratcliffe St", "parent_station": null, "location": {"lat": -35.23202, "lng": 149.049766}, "accessibility": {"wheelchair": "none"}}, {"id": "5029", "name": "Southern Cross Dr before Chewings St", "parent_station": null, "location": {"lat": -35.232515, "lng": 149.049989}, "accessibility": {"wheelchair": "none"}}, {"id": "5030", "name": "Spofforth St after Messsenger St", "parent_station": null, "location": {"lat": -35.224972, "lng": 149.00509}, "accessibility": {"wheelchair": "none"}}, {"id": "5031", "name": "Canberra Av opp Geelong St", "parent_station": null, "location": {"lat": -35.333304, "lng": 149.166471}, "accessibility": {"wheelchair": "none"}}, {"id": "5032", "name": "Chuculba Cr after 2nd Canopus Cr", "parent_station": null, "location": {"lat": -35.20968, "lng": 149.090168}, "accessibility": {"wheelchair": "none"}}, {"id": "5038", "name": "Pro Hart Av after Stockdill Dr", "parent_station": null, "location": {"lat": -35.23252, "lng": 148.99938}, "accessibility": {"wheelchair": "none"}}, {"id": "5039", "name": "Pro Hart Av opp Stockdill Dr", "parent_station": null, "location": {"lat": -35.232887, "lng": 148.99811}, "accessibility": {"wheelchair": "none"}}, {"id": "5041", "name": "Pro Hart Av after Ariotti St", "parent_station": null, "location": {"lat": -35.229431, "lng": 148.994965}, "accessibility": {"wheelchair": "none"}}, {"id": "5042", "name": "Baldwin Dr opp UC High School Kaleen", "parent_station": null, "location": {"lat": -35.224375, "lng": 149.100503}, "accessibility": {"wheelchair": "none"}}, {"id": "5043", "name": "Archdall St before Fleay Pl", "parent_station": null, "location": {"lat": -35.199948, "lng": 149.015708}, "accessibility": {"wheelchair": "none"}}, {"id": "5044", "name": "Owen Dixon Dr after Walkley Pl", "parent_station": null, "location": {"lat": -35.211995, "lng": 149.08457}, "accessibility": {"wheelchair": "none"}}, {"id": "5050", "name": "Pro Hart Av after McClymont Way", "parent_station": null, "location": {"lat": -35.229543, "lng": 148.995136}, "accessibility": {"wheelchair": "none"}}, {"id": "5051", "name": "Gundaroo Dr before Candblebark Cl", "parent_station": null, "location": {"lat": -35.196652, "lng": 149.105751}, "accessibility": {"wheelchair": "none"}}, {"id": "5052", "name": "Gundaroo Dr after Nudurr Dr", "parent_station": null, "location": {"lat": -35.196764, "lng": 149.105732}, "accessibility": {"wheelchair": "none"}}, {"id": "5053", "name": "Gundaroo Dr before Burrowa St", "parent_station": null, "location": {"lat": -35.194274, "lng": 149.110067}, "accessibility": {"wheelchair": "none"}}, {"id": "5054", "name": "Gundaroo Dr after Burrowa St", "parent_station": null, "location": {"lat": -35.193861, "lng": 149.110857}, "accessibility": {"wheelchair": "none"}}, {"id": "5062", "name": "Temperley St after Curran Dr", "parent_station": null, "location": {"lat": -35.184461, "lng": 149.092027}, "accessibility": {"wheelchair": "none"}}, {"id": "5063", "name": "Temperley St after Dobbin Cct", "parent_station": null, "location": {"lat": -35.184489, "lng": 149.091844}, "accessibility": {"wheelchair": "none"}}, {"id": "5064", "name": "Temperley St before Stebman Pl", "parent_station": null, "location": {"lat": -35.186136, "lng": 149.09299}, "accessibility": {"wheelchair": "none"}}, {"id": "5066", "name": "Temperley St before Vine Pl", "parent_station": null, "location": {"lat": -35.188026, "lng": 149.094157}, "accessibility": {"wheelchair": "none"}}, {"id": "5067", "name": "Temperley St opp Stedman Pl", "parent_station": null, "location": {"lat": -35.186159, "lng": 149.09281}, "accessibility": {"wheelchair": "none"}}, {"id": "5068", "name": "Temperley St before Krantzcke Cct", "parent_station": null, "location": {"lat": -35.189887, "lng": 149.095371}, "accessibility": {"wheelchair": "none"}}, {"id": "5069", "name": "Temperley St before 2nd Sue Geh Cct", "parent_station": null, "location": {"lat": -35.188092, "lng": 149.094191}, "accessibility": {"wheelchair": "none"}}, {"id": "5070", "name": "Temperley St opp 2nd Sue Geh Cct", "parent_station": null, "location": {"lat": -35.192611, "lng": 149.096317}, "accessibility": {"wheelchair": "none"}}, {"id": "5071", "name": "Temperley St before 2nd McRitchie Cct", "parent_station": null, "location": {"lat": -35.189759, "lng": 149.095276}, "accessibility": {"wheelchair": "none"}}, {"id": "5072", "name": "Kelleway Av before Lexcen Av", "parent_station": null, "location": {"lat": -35.183399, "lng": 149.099538}, "accessibility": {"wheelchair": "none"}}, {"id": "5073", "name": "Kelleway Av after Lexcen Av", "parent_station": null, "location": {"lat": -35.183279, "lng": 149.099546}, "accessibility": {"wheelchair": "none"}}, {"id": "5074", "name": "Lexcen Av after Temperley St", "parent_station": null, "location": {"lat": -35.188621, "lng": 149.10147}, "accessibility": {"wheelchair": "none"}}, {"id": "5075", "name": "Lexcen Av opp Temperley St", "parent_station": null, "location": {"lat": -35.188677, "lng": 149.101597}, "accessibility": {"wheelchair": "none"}}, {"id": "5076", "name": "Temperley St before 1st Sue Geh Cct", "parent_station": null, "location": {"lat": -35.192368, "lng": 149.095814}, "accessibility": {"wheelchair": "none"}}, {"id": "5077", "name": "Temperley St after 2nd Whitfield Cct", "parent_station": null, "location": {"lat": -35.192272, "lng": 149.098459}, "accessibility": {"wheelchair": "none"}}, {"id": "5078", "name": "Temperley St after Wendy Ey Pl", "parent_station": null, "location": {"lat": -35.190697, "lng": 149.100057}, "accessibility": {"wheelchair": "none"}}, {"id": "5079", "name": "Temperley St before 2nd Whitfield Cct", "parent_station": null, "location": {"lat": -35.190745, "lng": 149.100139}, "accessibility": {"wheelchair": "none"}}, {"id": "5080", "name": "Katherine Av opp Auburn St", "parent_station": null, "location": {"lat": -35.16808, "lng": 149.127998}, "accessibility": {"wheelchair": "none"}}, {"id": "5081", "name": "Katherine Av before Proserpine Cct", "parent_station": null, "location": {"lat": -35.169155, "lng": 149.129407}, "accessibility": {"wheelchair": "none"}}, {"id": "5082", "name": "Katherine Av opp Cooloola St", "parent_station": null, "location": {"lat": -35.169461, "lng": 149.131827}, "accessibility": {"wheelchair": "none"}}, {"id": "5083", "name": "The Valley Av opp Burgmann School Valley Campus", "parent_station": null, "location": {"lat": -35.186933, "lng": 149.124061}, "accessibility": {"wheelchair": "none"}}, {"id": "5084", "name": "Burgmann Anglican School Valley Campus", "parent_station": null, "location": {"lat": -35.187759, "lng": 149.12331}, "accessibility": {"wheelchair": "none"}}, {"id": "5085", "name": "Gozzard St before Swain St", "parent_station": null, "location": {"lat": -35.18167, "lng": 149.13312}, "accessibility": {"wheelchair": "none"}}, {"id": "5086", "name": "Gozzard St before Bruning St", "parent_station": null, "location": {"lat": -35.181793, "lng": 149.133216}, "accessibility": {"wheelchair": "none"}}, {"id": "5088", "name": "Spofforth St before Drake Brockman Dr", "parent_station": null, "location": {"lat": -35.228722, "lng": 149.007161}, "accessibility": {"wheelchair": "none"}}, {"id": "5089", "name": "Spofforth St after Strockdill Dr", "parent_station": null, "location": {"lat": -35.22876, "lng": 149.007022}, "accessibility": {"wheelchair": "none"}}, {"id": "5098", "name": "Lance Hill Av before 1st Evelyn Owen Cr", "parent_station": null, "location": {"lat": -35.197162, "lng": 149.021842}, "accessibility": {"wheelchair": "none"}}, {"id": "5099", "name": "Lance Hill Av after Shoobridge Cct", "parent_station": null, "location": {"lat": -35.195165, "lng": 149.020372}, "accessibility": {"wheelchair": "none"}}, {"id": "5100", "name": "Canberra Hospital Bateson Rd", "parent_station": null, "location": {"lat": -35.348479, "lng": 149.100643}, "accessibility": {"wheelchair": "none"}}, {"id": "5101", "name": "Kerrigan St after Polilight St", "parent_station": null, "location": {"lat": -35.193721, "lng": 149.031334}, "accessibility": {"wheelchair": "none"}}, {"id": "5102", "name": "Kerrigan St before Dunnett St", "parent_station": null, "location": {"lat": -35.193759, "lng": 149.03123}, "accessibility": {"wheelchair": "none"}}, {"id": "5103", "name": "Catalina Dr before Lancaster Pl", "parent_station": null, "location": {"lat": -35.299033, "lng": 149.1881}, "accessibility": {"wheelchair": "none"}}, {"id": "5105", "name": "Mt Stromlo HS School Grounds SSO", "parent_station": null, "location": {"lat": -35.355019, "lng": 149.054357}, "accessibility": {"wheelchair": "none"}}, {"id": "5110", "name": "Dakota Dr before Beaufighter St", "parent_station": null, "location": {"lat": -35.300127, "lng": 149.189025}, "accessibility": {"wheelchair": "none"}}, {"id": "5112", "name": "Pro Hart Av after Sally Ross Way", "parent_station": null, "location": {"lat": -35.223182, "lng": 148.993368}, "accessibility": {"wheelchair": "none"}}, {"id": "5118", "name": "Stockman Av before Bulletin St", "parent_station": null, "location": {"lat": -35.22762, "lng": 149.086915}, "accessibility": {"wheelchair": "none"}}, {"id": "5120", "name": "Stockman Av before Jumbuck Cr", "parent_station": null, "location": {"lat": -35.227275, "lng": 149.091256}, "accessibility": {"wheelchair": "none"}}, {"id": "5123", "name": "Covenant College School Grounds SSO", "parent_station": null, "location": {"lat": -35.439518, "lng": 149.090233}, "accessibility": {"wheelchair": "none"}}, {"id": "5127", "name": "Canberra Av after Ipswich St", "parent_station": null, "location": {"lat": -35.330885, "lng": 149.162578}, "accessibility": {"wheelchair": "none"}}, {"id": "5128", "name": "Alfred Deakin High School Grounds SSO", "parent_station": null, "location": {"lat": -35.324106, "lng": 149.093537}, "accessibility": {"wheelchair": "none"}}, {"id": "5137", "name": "Curran Dr after McClelland Av", "parent_station": null, "location": {"lat": -35.18226, "lng": 149.091887}, "accessibility": {"wheelchair": "none"}}, {"id": "5138", "name": "Curran Dr before McClelland Av", "parent_station": null, "location": {"lat": -35.182237, "lng": 149.091794}, "accessibility": {"wheelchair": "none"}}, {"id": "5168", "name": "CIT Bruce Battye St", "parent_station": null, "location": {"lat": -35.246526, "lng": 149.096635}, "accessibility": {"wheelchair": "none"}}, {"id": "5169", "name": "John Paul College Gungahlin Dr", "parent_station": null, "location": {"lat": -35.176092, "lng": 149.101172}, "accessibility": {"wheelchair": "none"}}, {"id": "5170", "name": "Gungahlin Dr opp John Paul College", "parent_station": null, "location": {"lat": -35.175981, "lng": 149.101379}, "accessibility": {"wheelchair": "none"}}, {"id": "5171", "name": "Braybrooke St before Ginninderra Dr", "parent_station": null, "location": {"lat": -35.240176, "lng": 149.103025}, "accessibility": {"wheelchair": "none"}}, {"id": "5172", "name": "Braybrooke St after Ginninderra Dr", "parent_station": null, "location": {"lat": -35.240418, "lng": 149.103165}, "accessibility": {"wheelchair": "none"}}, {"id": "5173", "name": "Wanganeen Av after Mirrabei Dr", "parent_station": null, "location": {"lat": -35.168342, "lng": 149.11451}, "accessibility": {"wheelchair": "none"}}, {"id": "5174", "name": "Kingsford Smith Dr before Ginninderra Dr", "parent_station": null, "location": {"lat": -35.214779, "lng": 149.045702}, "accessibility": {"wheelchair": "none"}}, {"id": "5175", "name": "Temperley St before Wendy Ey Pl", "parent_station": null, "location": {"lat": -35.192137, "lng": 149.098434}, "accessibility": {"wheelchair": "none"}}, {"id": "5182", "name": "John Paul College School Grounds SSO", "parent_station": null, "location": {"lat": -35.177066, "lng": 149.100304}, "accessibility": {"wheelchair": "none"}}, {"id": "5183", "name": "Gundaroo Dr after Ginninderra Dr", "parent_station": null, "location": {"lat": -35.22406, "lng": 149.077036}, "accessibility": {"wheelchair": "none"}}, {"id": "5184", "name": "Gundaroo Dr before Ginninderra Dr", "parent_station": null, "location": {"lat": -35.224171, "lng": 149.077197}, "accessibility": {"wheelchair": "none"}}, {"id": "5185", "name": "Gundaroo Dr opp Baldwin Dr", "parent_station": null, "location": {"lat": -35.21685, "lng": 149.082819}, "accessibility": {"wheelchair": "none"}}, {"id": "5186", "name": "Gundaroo Dr after Baldwin Dr", "parent_station": null, "location": {"lat": -35.218142, "lng": 149.081466}, "accessibility": {"wheelchair": "none"}}, {"id": "5501", "name": "Westfield Belconnen Plt 1", "parent_station": null, "location": {"lat": -35.238965, "lng": 149.064084}, "accessibility": {"wheelchair": "none"}}, {"id": "5502", "name": "Westfield Belconnen Plt 2", "parent_station": null, "location": {"lat": -35.23861, "lng": 149.063546}, "accessibility": {"wheelchair": "none"}}, {"id": "5503", "name": "Westfield Belconnen Platform 1 Set Down Only", "parent_station": null, "location": {"lat": -35.238854, "lng": 149.063994}, "accessibility": {"wheelchair": "none"}}, {"id": "5504", "name": "Westfield Belconnen Platform 2 Set Down Only", "parent_station": null, "location": {"lat": -35.238655, "lng": 149.063586}, "accessibility": {"wheelchair": "none"}}, {"id": "5511", "name": "Belconnen Interchange Plt 1", "parent_station": null, "location": {"lat": -35.239758, "lng": 149.069786}, "accessibility": {"wheelchair": "none"}}, {"id": "5512", "name": "Belconnen Interchange Plt 2", "parent_station": null, "location": {"lat": -35.239779, "lng": 149.069179}, "accessibility": {"wheelchair": "none"}}, {"id": "5513", "name": "Belconnen Interchange Plt 3", "parent_station": null, "location": {"lat": -35.239813, "lng": 149.068407}, "accessibility": {"wheelchair": "none"}}, {"id": "5514", "name": "Belconnen Interchange Plt 4", "parent_station": null, "location": {"lat": -35.240007, "lng": 149.067995}, "accessibility": {"wheelchair": "none"}}, {"id": "5515", "name": "Belconnen Interchange Plt 5", "parent_station": null, "location": {"lat": -35.240015, "lng": 149.068853}, "accessibility": {"wheelchair": "none"}}, {"id": "5516", "name": "Belconnen Interchange Plt 6", "parent_station": null, "location": {"lat": -35.240011, "lng": 149.069342}, "accessibility": {"wheelchair": "none"}}, {"id": "5517", "name": "Belconnen Interchange Arrivals", "parent_station": null, "location": {"lat": -35.239982, "lng": 149.069041}, "accessibility": {"wheelchair": "none"}}, {"id": "5518", "name": "Belconnen Interchange Arrivals", "parent_station": null, "location": {"lat": -35.239792, "lng": 149.069006}, "accessibility": {"wheelchair": "none"}}, {"id": "5520", "name": "Eastern Valley Way Bus Stn", "parent_station": null, "location": {"lat": -35.240148, "lng": 149.072997}, "accessibility": {"wheelchair": "none"}}, {"id": "5521", "name": "Eastern Valley Way after Emu Bank Dr", "parent_station": null, "location": {"lat": -35.240701, "lng": 149.07349}, "accessibility": {"wheelchair": "none"}}, {"id": "5901", "name": "Burdekin Av opp Amaroo School", "parent_station": null, "location": {"lat": -35.165749, "lng": 149.126804}, "accessibility": {"wheelchair": "none"}}, {"id": "5902", "name": "Burdekin Av opp Good Shepherd PS", "parent_station": null, "location": {"lat": -35.166132, "lng": 149.12472}, "accessibility": {"wheelchair": "none"}}, {"id": "5903", "name": "Burdekin Av before Traine Ct", "parent_station": null, "location": {"lat": -35.168446, "lng": 149.122128}, "accessibility": {"wheelchair": "none"}}, {"id": "5904", "name": "Burdekin Av after Bywaters St", "parent_station": null, "location": {"lat": -35.17072, "lng": 149.120951}, "accessibility": {"wheelchair": "none"}}, {"id": "5994", "name": "Galmarra St after Paul Coe Cr", "parent_station": null, "location": {"lat": -35.17866, "lng": 149.121054}, "accessibility": {"wheelchair": "none"}}, {"id": "5995", "name": "Galmarra St before Paul Coe Cr", "parent_station": null, "location": {"lat": -35.178702, "lng": 149.12133}, "accessibility": {"wheelchair": "none"}}, {"id": "5996", "name": "Paul Coe Cr after Nona Pl", "parent_station": null, "location": {"lat": -35.177876, "lng": 149.122262}, "accessibility": {"wheelchair": "none"}}, {"id": "5997", "name": "Good Shepherd PS Burdekin Av", "parent_station": null, "location": {"lat": -35.166072, "lng": 149.124589}, "accessibility": {"wheelchair": "none"}}, {"id": "5999", "name": "Paul Coe Cr after Kardang St", "parent_station": null, "location": {"lat": -35.178271, "lng": 149.122458}, "accessibility": {"wheelchair": "none"}}]