stop_id,stop_code,stop_name,stop_desc,stop_lat,stop_lon,zone_id,stop_url,location_type,parent_station,stop_timezone,wheelchair_boarding,platform_code
4971,4971,Eardley St after Haydon Dr, ,-35.24022,149.0916,,,0,,,,
1462,1462,Harricks Cr after 1st Cracknell St, ,-35.40881,149.09268,,,0,,,,
1461,1461,Harricks Cr opp 1st Michell St, ,-35.41077,149.09088,,,0,,,,
1460,1460,Harricks Cr after 1st Michell St, ,-35.41071,149.09117,,,0,,,,
1459,1459,Hebblewhite St before Burnell Pl, ,-35.4121,149.0874,,,0,,,,
2306,2306,Novar St after Kintore Cr, ,-35.31195,149.09821,,,0,,,,
2305,2305,Strickland Cr opp John James Hospital, ,-35.31836,149.09534,,,0,,,,
1458,1458,Hebblewhite St after Forwood St, ,-35.41199,149.08766,,,0,,,,
1457,1457,Corlette Cr opp Hebblewhite St, ,-35.41423,149.08727,,,0,,,,
2304,2304,John James Hospital Strickland Cr, ,-35.31847,149.09563,,,0,,,,
1456,1456,Corlette Cr opp Monash PS, ,-35.41479,149.08897,,,0,,,,
2303,2303,Gilmore Cr before Esson Pl, ,-35.34586,149.10494,,,0,,,,
2302,2302,Gilmore Cr before 1st Eldridge Cr, ,-35.34576,149.10497,,,0,,,,
1454,1454,Corlette Cr after Hebblewhite St, ,-35.41417,149.08757,,,0,,,,
2301,2301,Ainsworth St after Hindmarsh Dr, ,-35.34984,149.0938,,,0,,,,
1453,1453,Monash PS Corlette Cr, ,-35.41534,149.08957,,,0,,,,
2300,2300,Ainsworth St after Alsop Cl, ,-35.35058,149.09341,,,0,,,,
1452,1452,Clive Steele Av before Harkness St, ,-35.4163,149.08836,,,0,,,,
4964,4964,Jerrabomberra Av opp Geoscience Australia SSO, ,-35.34398,149.15491,,,0,,,,
4965,4965,Geoscience Australia Jerrabomberra Av SSO, ,-35.34443,149.15558,,,0,,,,
2308,2308,Yarralumla Shops Novar St, ,-35.30793,149.09819,,,0,,,,
2307,2307,Novar St before Weston St, ,-35.31012,149.09821,,,0,,,,
4980,4980,Kerrigan St after Dunnett St, ,-35.19162,149.02837,,,0,,,,
4981,4981,Kerrigan St after Branson St, ,-35.1917,149.02847,,,0,,,,
4982,4982,Eardley St after Thynne St, ,-35.24035,149.09158,,,0,,,,
1473,1473,Wheeler Cr opp Wanniassa HS, ,-35.39465,149.08659,,,0,,,,
1472,1472,Wanniassa HS Wheeler Cr, ,-35.3948,149.08668,,,0,,,,
1471,1471,Wheeler Cr after Kirkton St, ,-35.39812,149.08849,,,0,,,,
1470,1470,Wheeler Cr after Guthridge Cr, ,-35.39815,149.08838,,,0,,,,
1469,1469,Wheeler Cr opp Hanna St, ,-35.40041,149.08929,,,0,,,,
2,2,Athllon Dr after Learmonth Dr, ,-35.40261,149.06474,,,0,,,,
1468,1468,Wheeler Cr before Sternberg Cr, ,-35.40209,149.0918,,,0,,,,
1467,1467,Wheeler Cr before Hanna St, ,-35.40053,149.08923,,,0,,,,
3,3,Athllon Dr opp Learmonth Dr, ,-35.40279,149.06502,,,0,,,,
1466,1466,Wheeler Cr after Sternberg Cr, ,-35.40234,149.09178,,,0,,,,
2313,2313,Melbourne Av opp Canberra Girls Grammar Senior Sch, ,-35.31848,149.11557,,,0,,,,
1465,1465,MacKillop College MacKinnon St SSO, ,-35.40532,149.08964,,,0,,,,
1464,1464,MacKinnon St opp MacKillop College, ,-35.40537,149.08951,,,0,,,,
1463,1463,Harricks Cr opp 2nd Cracknell St, ,-35.40894,149.09245,,,0,,,,
4972,4972,College St opp University of Canberra, ,-35.24254,149.08571,,,0,,,,
9,9,Athllon Dr opp Dept of Human Services, ,-35.42028,149.06598,,,0,,,,
4973,4973,Arcadia House Mary Potter Cct, ,-35.25168,149.09023,,,0,,,,
4975,4975,Calvary Private Hospital Mary Potter Cct, ,-35.25284,149.0911,,,0,,,,
4977,4977,Mary Potter Cct opp North Canberra Hospital, ,-35.25391,149.08879,,,0,,,,
4979,4979,University of Canberra College St, ,-35.24231,149.08632,,,0,,,,
4990,4990,Castieau St before Fullagar Cr, ,-35.23009,149.02844,,,0,,,,
4991,4991,Kingsford Smith Dr before Castieau St, ,-35.2316,149.03416,,,0,,,,
4992,4992,Charnwood Dunlop PS School Grounds SSO, ,-35.19855,149.0361,,,0,,,,
4993,4993,O'Loghlen St before 2nd Stretton Cr, ,-35.2211,149.03836,,,0,,,,
2331,2331,Eyre St before Leichhardt St, ,-35.31827,149.14035,,,0,,,,
1484,1484,Longmore Cr after Pyke Pl, ,-35.38809,149.09798,,,0,,,,
2330,2330,Giles St after Leichhardt St, ,-35.3172,149.13896,,,0,,,,
1483,1483,Gaunson Cr before Longmore Cr, ,-35.39038,149.09885,,,0,,,,
1482,1482,Gaunson Cr after Longmore Cr, ,-35.39059,149.09888,,,0,,,,
1481,1481,Gaunson Cr opp 2nd Sullivan Cr, ,-35.39272,149.09937,,,0,,,,
1480,1480,Gaunson Cr after 1st Sullivan Cr, ,-35.39334,149.09963,,,0,,,,
2328,2328,Canberra Av after Giles St, ,-35.32004,149.13835,,,0,,,,
4507,4507,Bennelong Cr after Roberts St, ,-35.25331,149.06007,,,0,,,,
4508,4508,Bennelong Cr at Liverpool St, ,-35.25357,149.06047,,,0,,,,
1479,1479,Gaunson Cr opp Harbison Cr, ,-35.39512,149.0985,,,0,,,,
4509,4509,Bennelong Cr after Goulburn St, ,-35.25365,149.06307,,,0,,,,
1478,1478,Gaunson Cr at Harbison Cr, ,-35.39524,149.09843,,,0,,,,
1477,1477,Kirkton St after Embling St, ,-35.39731,149.09419,,,0,,,,
1476,1476,Kirkton St after 2nd Holden Cr, ,-35.39727,149.09479,,,0,,,,
1475,1475,Kirkton St before Wheeler Cr, ,-35.39754,149.09016,,,0,,,,
1474,1474,Kirkton St before Greeves St, ,-35.39747,149.08995,,,0,,,,
4983,4983,Drake Brockman Dr after Kinsella St, ,-35.23966,149.02611,,,0,,,,
4984,4984,Drake Brockman Dr after Kingsford Smith Dr, ,-35.23982,149.02611,,,0,,,,
4500,4500,Bindubi St after Lyttleton Cr SSO, ,-35.25942,149.0734,,,0,,,,
4503,4503,Bennelong Cr after Lachlan St, ,-35.24807,149.05902,,,0,,,,
4504,4504,Bennelong Cr before Lachlan St, ,-35.2481,149.05891,,,0,,,,
4505,4505,Macquarie PS Bennelong Cr, ,-35.25093,149.05876,,,0,,,,
4989,4989,Castieau St after Fullager Cr, ,-35.22998,149.02853,,,0,,,,
4506,4506,Bennelong Cr opp Macquarie PS, ,-35.25109,149.05862,,,0,,,,
2329,2329,Giles St before Canberra Av, ,-35.31944,149.13754,,,0,,,,
1011,1011,Ellerston Av before 1st Abercorn Cr, ,-35.42637,149.09801,,,0,,,,
1495,1495,Heagney Cr before 2nd Mclorinan St, ,-35.42524,149.11429,,,0,,,,
2342,2342,130 Goyder St, ,-35.33707,149.15601,,,0,,,,
2341,2341,Goyder St after Kyeema St, ,-35.33675,149.15292,,,0,,,,
1494,1494,Heagney Cr before Beattie Cr, ,-35.42538,149.11408,,,0,,,,
1010,1010,Ellerston Av opp Mackillop College, ,-35.42577,149.09546,,,0,,,,
1493,1493,Clift Cr opp Heagney Cr, ,-35.42631,149.11247,,,0,,,,
2340,2340,Goyder St opp Kyeema St, ,-35.3367,149.15352,,,0,,,,
1492,1492,Clift Cr before Heagney Cr, ,-35.42628,149.11229,,,0,,,,
1491,1491,Clift Cr opp 1st Kiddle Cr, ,-35.42762,149.10979,,,0,,,,
1490,1490,Clift Cr before 2nd Kiddle Cr, ,-35.42756,149.10959,,,0,,,,
4518,4518,Jamison Centre Bowman St, ,-35.25255,149.07266,,,0,,,,
2339,2339,Goyder St opp Narrabundah College, ,-35.3382,149.14856,,,0,,,,
1008,1008,Isabella Plains Shops Ellerston Av, ,-35.42748,149.09142,,,0,,,,
1007,1007,Ellerston Av opp Isabella Plains Shops, ,-35.42786,149.09103,,,0,,,,
2338,2338,Narrabundah College Goyder St, ,-35.33841,149.14801,,,0,,,,
2337,2337,Goyder St opp Caley Cr, ,-35.33945,149.14641,,,0,,,,
1489,1489,Clift Cr opp 29, ,-35.42637,149.10704,,,0,,,,
1005,1005,Noorooma St after Ellerston Av, ,-35.42895,149.08817,,,0,,,,
2336,2336,Goyder St after Caley Cr, ,-35.33944,149.14622,,,0,,,,
1488,1488,29 Clift Cr, ,-35.42628,149.10706,,,0,,,,
2335,2335,Goyder St opp Jindalee Aged Care, ,-35.34121,149.1425,,,0,,,,
2334,2334,Jindalee Aged Care Goyder St, ,-35.34137,149.14241,,,0,,,,
1487,1487,Clift Cr before Ashley Dr, ,-35.4249,149.10405,,,0,,,,
1486,1486,Clift Cr after Ashley Dr, ,-35.42474,149.10402,,,0,,,,
2333,2333,Dalrymple St after Goyder St, ,-35.3431,149.13864,,,0,,,,
1002,1002,Mackillop College Drumston St, ,-35.42597,149.0917,,,0,,,,
1001,1001,Drumston St opp MacKillop College, ,-35.42611,149.09161,,,0,,,,
1485,1485,Longmore Cr before Sainsbury St, ,-35.38849,149.0983,,,0,,,,
2332,2332,Dalrymple St before Goyder St, ,-35.34295,149.13849,,,0,,,,
4510,4510,Lachlan St before Bennelong Cr, ,-35.25414,149.0636,,,0,,,,
4511,4511,Redfern St before Allman Cct, ,-35.25611,149.06621,,,0,,,,
4512,4512,Redfern St before Lyttleton Cr, ,-35.2562,149.06613,,,0,,,,
4513,4513,Redfern St after Allman St, ,-35.25582,149.06838,,,0,,,,
4514,4514,Redfern St after Dexter St, ,-35.256,149.06822,,,0,,,,
4515,4515,Bowman St before Jamison Centre, ,-35.25315,149.06953,,,0,,,,
4516,4516,Bowman St after Jamison Centre, ,-35.25288,149.06972,,,0,,,,
4517,4517,Bowman St opp Jamison Centre, ,-35.25253,149.07278,,,0,,,,
1009,1009,Mackillop College Ellerston Av, ,-35.42566,149.09549,,,0,,,,
4530,4530,Marcus Clarke St before Rimmer St, ,-35.27722,149.12639,,,0,,,,
3200,3200,Hackett Shops Madigan St, ,-35.24805,149.16319,,,0,,,,
2353,2353,Narrabundah PS Kootara Cr, ,-35.32993,149.15099,,,0,,,,
2352,2352,Kootara Cr before Bundeela St, ,-35.33117,149.15219,,,0,,,,
2351,2351,Kootara Cr opp Narrabundah Shops, ,-35.33194,149.1537,,,0,,,,
1020,1020,Casey Cr opp Carpenter Cl, ,-35.43686,149.11084,,,0,,,,
2350,2350,Narrabundah Shops Kootara Cr, ,-35.33252,149.15471,,,0,,,,
4529,4529,ANU Rimmer St, ,-35.27645,149.12578,,,0,,,,
1019,1019,Casey Cr before Carpenter Cl, ,-35.43666,149.11128,,,0,,,,
1018,1018,Boddington Cr after Bacchus Cct, ,-35.37939,149.05489,,,0,,,,
1017,1017,Calwell Shops Webber Cr, ,-35.43509,149.11374,,,0,,,,
2348,2348,Kootara Cr before Boolimba Cr, ,-35.33297,149.15662,,,0,,,,
1016,1016,Ellerston Av after Ashley Dr, ,-35.42892,149.10284,,,0,,,,
2347,2347,Kootara Cr after Matina St, ,-35.3331,149.15855,,,0,,,,
2346,2346,Kootara Cr after Deeban Pl, ,-35.333,149.15842,,,0,,,,
1015,1015,Ellerston Av before Ashley Dr, ,-35.42879,149.10289,,,0,,,,
1499,1499,Beattie Cr opp Hemmings Cr, ,-35.42096,149.11386,,,0,,,,
2345,2345,Matina St opp 98, ,-35.33474,149.15848,,,0,,,,
1498,1498,Beattie Cr after Hemmings Cr, ,-35.42098,149.11362,,,0,,,,
1014,1014,Ellerston Av before 2nd Groveland Cr, ,-35.42839,149.10036,,,0,,,,
1013,1013,Ellerston Av before 2nd Abercorn Cr, ,-35.42849,149.10062,,,0,,,,
1497,1497,Beattie Cr before Swanton St, ,-35.42306,149.11218,,,0,,,,
2344,2344,92 Matina St, ,-35.33438,149.15865,,,0,,,,
2343,2343,Goyder St opp 128, ,-35.33712,149.15651,,,0,,,,
1496,1496,Beattie Cr before 2nd McBurney Cr, ,-35.42276,149.11202,,,0,,,,
1012,1012,Ellerston Av opp 2nd Abercorn Cr, ,-35.4266,149.09811,,,0,,,,
4521,4521,Aranda PS Bandjalong Cr, ,-35.2562,149.07965,,,0,,,,
4522,4522,Bandjalong Cr opp Aranda PS, ,-35.2562,149.07851,,,0,,,,
4523,4523,Bandjalong Cr before Nungara St, ,-35.25733,149.08229,,,0,,,,
4524,4524,Bandjalong Cr opp Nungara St, ,-35.25736,149.08212,,,0,,,,
4525,4525,Bandjalong Cr before Banambila St, ,-35.259,149.08467,,,0,,,,
4526,4526,Bandjalong Cr opp Banambila St, ,-35.25934,149.08563,,,0,,,,
4527,4527,Barry Dr opp ANU, ,-35.27249,149.11816,,,0,,,,
4528,4528,ANU Barry Dr, ,-35.27297,149.11902,,,0,,,,
4541,4541,Ashkanasy Cr after Keenan St, ,-35.20819,149.06624,,,0,,,,
4542,4542,Ashkanasy Cr after Copland Dr, ,-35.20806,149.06632,,,0,,,,
1033,1033,Lawrence Wackett Cr opp Theodore PS, ,-35.44728,149.12462,,,0,,,,
2364,2364,Stuart St before Strzelecki Cr, ,-35.33018,149.1434,,,0,,,,
3211,3211,Officer Cr after Agnew St, ,-35.25362,149.15474,,,0,,,,
3210,3210,Officer Cr before Majura Av, ,-35.25141,149.1543,,,0,,,,
1032,1032,Tharwa Dr before Duggan St, ,-35.44445,149.10399,,,0,,,,
2363,2363,Stuart St at Strzelecki Cr, ,-35.33078,149.14375,,,0,,,,
2362,2362,McIntyre St opp Stuart St, ,-35.33173,149.14506,,,0,,,,
1031,1031,Tharwa Dr after Duggan St, ,-35.44482,149.10571,,,0,,,,
2361,2361,McIntyre St after Stuart St, ,-35.33147,149.14533,,,0,,,,
1030,1030,Duggan St before 2nd Andrew Cr, ,-35.4416,149.10112,,,0,,,,
3208,3208,Phillip Av after Stott St, ,-35.25115,149.15674,,,0,,,,
1029,1029,Duggan St before 1st Pennington Cr, ,-35.4416,149.10091,,,0,,,,
3207,3207,Phillip Av before Majura Av, ,-35.25142,149.15688,,,0,,,,
3206,3206,Phillip Av before Madigan St, ,-35.25283,149.15964,,,0,,,,
1028,1028,Duggan St after Beckett St, ,-35.43983,149.09848,,,0,,,,
3205,3205,Phillip Av opp Madigan St, ,-35.25267,149.15912,,,0,,,,
1027,1027,Duggan St after Downard St, ,-35.43987,149.09862,,,0,,,,
3204,3204,Madigan St opp Mackenzie St, ,-35.25174,149.16255,,,0,,,,
3203,3203,Madigan St before Mackenzie St, ,-35.25202,149.16228,,,0,,,,
3202,3202,Blue Gum PS Madigan St, ,-35.24987,149.16388,,,0,,,,
2355,2355,Kootara Cr before Keira St, ,-35.32732,149.14951,,,0,,,,
3201,3201,Madigan St opp Blue Gum PS, ,-35.24978,149.16408,,,0,,,,
2354,2354,Kootara Cr opp Narrabundah PS, ,-35.32889,149.15008,,,0,,,,
4532,4532,Hennessy St at Greene Pl, ,-35.24407,149.0721,,,0,,,,
4533,4533,Hennessy St at Osborne Pl, ,-35.24405,149.07198,,,0,,,,
4534,4534,Hennessy St after Strong Pl, ,-35.24635,149.07149,,,0,,,,
4535,4535,Hennessy St after Solly Pl, ,-35.24611,149.07127,,,0,,,,
4536,4536,Hennessy St at Gatehouse Pl, ,-35.24826,149.07526,,,0,,,,
4537,4537,Hennessy St before Allot Pl, ,-35.24836,149.07527,,,0,,,,
3209,3209,Officer Cr after Salomons Pl, ,-35.25167,149.1546,,,0,,,,
4550,4550,Mouat St opp Southwell Park, ,-35.24802,149.13132,,,0,,,,
4552,4552,Northbourne Av opp Dickson Interchange, ,-35.25088,149.13341,,,0,,,,
3222,3222,Ainslie Shops O'Connell St, ,-35.26231,149.14575,,,0,,,,
2375,2375,Brisbane Av after Macquarie St, ,-35.30926,149.13651,,,0,,,,
1044,1044,Hurtle Av after 1st Noarlunga Cr, ,-35.4348,149.08615,,,0,,,,
2374,2374,Old Bus Depot Markets Wentworth Av, ,-35.31163,149.14287,,,0,,,,
3221,3221,O'Connell St opp Ainslie Shops, ,-35.26249,149.14591,,,0,,,,
3220,3220,Ebden St after Wakefield Av, ,-35.26157,149.14728,,,0,,,,
2373,2373,Wentworth Av opp Old Bus Depot Markets, ,-35.31309,149.14322,,,0,,,,
2372,2372,Manuka Shops Captain Cook Cr, ,-35.32168,149.13452,,,0,,,,
2371,2371,Captain Cook Cr opp Manuka Shops, ,-35.32107,149.1351,,,0,,,,
2370,2370,Stuart St after Lockyer St, ,-35.32367,149.13765,,,0,,,,
3219,3219,Ebden St after 2nd Hoddle Gdns, ,-35.26135,149.14745,,,0,,,,
3218,3218,Officer Cr before Davenport St, ,-35.25849,149.14784,,,0,,,,
3217,3217,Officer Cr before Tyson St, ,-35.25879,149.14787,,,0,,,,
3216,3216,Officer Cr after Beeby St, ,-35.25682,149.14963,,,0,,,,
1038,1038,Chippindall Cct after Latchford St, ,-35.45072,149.1203,,,0,,,,
2369,2369,Stuart St after Hann St, ,-35.32368,149.13779,,,0,,,,
2368,2368,Stuart St after Barrallier St, ,-35.32555,149.1394,,,0,,,,
3215,3215,Officer Cr after Hawdon St, ,-35.25683,149.14989,,,0,,,,
1037,1037,Chippindall Cct opp Goldfinch Cct, ,-35.45082,149.1201,,,0,,,,
3214,3214,Officer Cr opp Gillen St, ,-35.2549,149.15288,,,0,,,,
1036,1036,Lawrence Wackett Cr before Chippindall Cct, ,-35.45,149.1225,,,0,,,,
2367,2367,Stuart St before Barrallier St, ,-35.3255,149.13921,,,0,,,,
3213,3213,Officer Cr before Gillen St, ,-35.25506,149.15288,,,0,,,,
2366,2366,Stuart St opp Griffith Shops, ,-35.32796,149.1413,,,0,,,,
1035,1035,Lawrence Wackett Cr after 1st Burdett Cr, ,-35.44987,149.12256,,,0,,,,
3212,3212,Officer Cr after 2nd Hannan Cr, ,-35.25374,149.15445,,,0,,,,
2365,2365,Griffith Shops Stuart St, ,-35.32866,149.14212,,,0,,,,
1034,1034,Theodore PS Lawrence Wackett Cr, ,-35.44735,149.12448,,,0,,,,
4547,4547,National Hockey Centre Mouat St, ,-35.24446,149.12721,,,0,,,,
4548,4548,Mouat St opp National Hockey Centre, ,-35.24572,149.12743,,,0,,,,
4549,4549,Southwell Park Mouat St, ,-35.24791,149.13149,,,0,,,,
1055,1055,Hurtle Av after Ebenezer St, ,-35.43394,149.08289,,,0,,,,
3233,3233,Gooreen St after Donaldson St, ,-35.27439,149.14023,,,0,,,,
3232,3232,Chisholm St after Lister Cr, ,-35.27248,149.14369,,,0,,,,
1054,1054,Hurtle Av opp Ebenezer St, ,-35.43441,149.08359,,,0,,,,
1053,1053,Barr Smith Av after Hurtle Av, ,-35.43126,149.08006,,,0,,,,
3231,3231,Chisholm St after Howe Cr, ,-35.27264,149.14354,,,0,,,,
3230,3230,Chisholm St after Paterson St, ,-35.27176,149.14554,,,0,,,,
1052,1052,Barr Smith Av opp Hurtle Av, ,-35.4311,149.08,,,0,,,,
2382,2382,Canberra Hospital Yamba Dr, ,-35.34649,149.09975,,,0,,,,
2380,2380,Yamba Dr opp Justinian St, ,-35.34113,149.09476,,,0,,,,
3229,3229,Campbell St before Chisholm St, ,-35.27114,149.14597,,,0,,,,
3228,3228,Campbell St after Leslie St, ,-35.26876,149.14446,,,0,,,,
3227,3227,Campbell St after 2nd Baker Gdns, ,-35.26848,149.14441,,,0,,,,
2379,2379,Yamba Dr before Kitchener St, ,-35.34246,149.09691,,,0,,,,
3226,3226,Campbell St before Foveaux St, ,-35.26551,149.14325,,,0,,,,
2378,2378,St Peter & St Pauls PS Yamba Dr, ,-35.34,149.09312,,,0,,,,
1047,1047,Barr Smith Av after Don Dunstan Dr, ,-35.4269,149.07419,,,0,,,,
3225,3225,Campbell St after Foveaux St, ,-35.26572,149.14334,,,0,,,,
3224,3224,Campbell St before Cox St, ,-35.26377,149.14352,,,0,,,,
1046,1046,Barr Smith Av after Salas St, ,-35.42673,149.07417,,,0,,,,
1045,1045,Hurtle Av opp 2nd Noarlunga Cr, ,-35.43473,149.08597,,,0,,,,
2376,2376,Australian Federal Police College Brisbane Av, ,-35.30975,149.13704,,,0,,,,
3223,3223,Cox St before Campbell St, ,-35.26359,149.14395,,,0,,,,
4570,4570,Kingsford Smith Dr after Companion Cr, ,-35.21328,149.04642,,,0,,,,
2397,2397,Blackwood Tce after Pearson St, ,-35.33562,149.04648,,,0,,,,
3244,3244,Bradfield St after Frencham St, ,-35.24343,149.1445,,,0,,,,
1066,1066,Anketell St after Oakden St, ,-35.42255,149.07295,,,0,,,,
1065,1065,Anketell St before Oakden St, ,-35.4227,149.07291,,,0,,,,
3243,3243,Bradfield St opp Frencham St, ,-35.24344,149.14549,,,0,,,,
2396,2396,Blackwood Tce after Mulley St, ,-35.33441,149.04851,,,0,,,,
2395,2395,Blackwood Tce after Calder Cr, ,-35.33434,149.04846,,,0,,,,
1064,1064,Scollay St opp Tuggeranong Bus Depot, ,-35.42181,149.06923,,,0,,,,
3242,3242,Melba St after Bradfield St, ,-35.24379,149.14307,,,0,,,,
2394,2394,Canberra Montessori School Mulley St, ,-35.33192,149.04906,,,0,,,,
3241,3241,Melba St after Atherton St, ,-35.24371,149.14294,,,0,,,,
1063,1063,Tuggeranong Bus Depot Scollay St, ,-35.42266,149.06973,,,0,,,,
1062,1062,Soward Way before Anketell St, ,-35.41738,149.07074,,,0,,,,
3240,3240,Melba St opp Swinden St, ,-35.24492,149.14288,,,0,,,,
1061,1061,Soward Way after Anketell St, ,-35.41727,149.07069,,,0,,,,
2392,2392,120 Gladstone St, ,-35.32397,149.18221,,,0,,,,
1060,1060,Boddington Cr before Reynell Pl, ,-35.37952,149.05512,,,0,,,,
2391,2391,86 Gladstone St, ,-35.32229,149.17964,,,0,,,,
2390,2390,Gladstone St before Kembla St, ,-35.32227,149.17474,,,0,,,,
3239,3239,Melba St after Legge St, ,-35.24549,149.14264,,,0,,,,
3238,3238,Melba St at Allport St, ,-35.24771,149.14243,,,0,,,,
1059,1059,Homeworld Soward Way, ,-35.41868,149.06789,,,0,,,,
3237,3237,Melba St at Blacket St, ,-35.24731,149.14235,,,0,,,,
3236,3236,Gooreen St before Batman St, ,-35.27621,149.14116,,,0,,,,
2389,2389,Gladstone St before Maryborough St, ,-35.32361,149.17267,,,0,,,,
1057,1057,Bonython PS Hurtle Av, ,-35.43144,149.08229,,,0,,,,
3235,3235,Gooreen St after Batman St, ,-35.27628,149.14133,,,0,,,,
3234,3234,Gooreen St after Chapman St, ,-35.27465,149.14026,,,0,,,,
2387,2387,Ipswich St after Wiluna St, ,-35.32913,149.16303,,,0,,,,
1056,1056,Hurtle Av opp Bonython PS, ,-35.43213,149.08231,,,0,,,,
4568,4568,Ashkanasy Cr before Hatfield St, ,-35.21098,149.06776,,,0,,,,
4569,4569,Ashkanasy Cr opp Hatfield St, ,-35.21068,149.06744,,,0,,,,
4583,4583,Antill St before Pigot St, ,-35.24836,149.13625,,,0,,,,
4584,4584,Antill St after Badham St, ,-35.24863,149.1369,,,0,,,,
4101,4101,Owen Dixon Dr before Clarey Cr, ,-35.19724,149.07065,,,0,,,,
4585,4585,Antill St opp Dickson Shops, ,-35.24869,149.13963,,,0,,,,
4586,4586,Dickson Shops Antill St, ,-35.24895,149.14006,,,0,,,,
4102,4102,Owen Dixon Dr opp Douglass St, ,-35.19865,149.07275,,,0,,,,
1077,1077,Outtrim Av before Duggan St, ,-35.43575,149.09866,,,0,,,,
1076,1076,Ellerston Av before Johnson Dr, ,-35.43378,149.09465,,,0,,,,
3253,3253,Knox St after Molesworth St, ,-35.23235,149.15323,,,0,,,,
1075,1075,Ellerston Av after Johnston Dr, ,-35.43396,149.09467,,,0,,,,
3252,3252,Knox St before Piddington St, ,-35.23252,149.1532,,,0,,,,
1074,1074,Ellerston Av before 2nd Kadina Cr, ,-35.43167,149.09206,,,0,,,,
3251,3251,Knox St after 2nd A'Beckett St, ,-35.23495,149.15158,,,0,,,,
1073,1073,Ellerston Av after Jasper Cl, ,-35.4319,149.09238,,,0,,,,
3250,3250,Knox St opp 1st A'Beckett St, ,-35.23471,149.1517,,,0,,,,
1072,1072,Ellerston Av opp Keverstone Cct, ,-35.43155,149.0889,,,0,,,,
1071,1071,Ellerston Av after Keverstone Cct, ,-35.43159,149.08881,,,0,,,,
1070,1070,Ellerston Av opp Noorooma St, ,-35.43013,149.08826,,,0,,,,
3249,3249,Majura Preschool Knox St, ,-35.23719,149.15231,,,0,,,,
3248,3248,Majura PS Knox St, ,-35.23798,149.15364,,,0,,,,
1069,1069,Ellerston Av before Noorooma St, ,-35.43039,149.08817,,,0,,,,
3247,3247,Knox St opp Majura PS SSO, ,-35.2384,149.1539,,,0,,,,
1068,1068,Tuggeranong Square Anketell St, ,-35.41998,149.07083,,,0,,,,
3246,3246,Bradfield St after Burn St, ,-35.24237,149.14828,,,0,,,,
2398,2398,Macfarland Cr opp Pearce Shops, ,-35.36316,149.08133,,,0,,,,
3245,3245,Bradfield St before Nicholas St, ,-35.24251,149.14792,,,0,,,,
1067,1067,Anketell St opp Tuggeranong Square, ,-35.4198,149.07085,,,0,,,,
4577,4577,Macarthur Av before Coolibah Cr, ,-35.25935,149.12172,,,0,,,,
4578,4578,MacArthur Av before Macpherson St, ,-35.2597,149.12174,,,0,,,,
4590,4590,Antill St before Hawdon Pl, ,-35.24843,149.14748,,,0,,,,
1080,1080,Outtrim Av after Gurr St, ,-35.43598,149.10194,,,0,,,,
4591,4591,Antill St before Cadell St, ,-35.24784,149.15025,,,0,,,,
4592,4592,Antill St opp Cadell St, ,-35.24801,149.15089,,,0,,,,
4593,4593,Phillip Av after Antill St, ,-35.24516,149.15353,,,0,,,,
4594,4594,Phillip Av before Antill St, ,-35.2444,149.15344,,,0,,,,
4595,4595,Phillip Av after Shirley St, ,-35.24298,149.15163,,,0,,,,
4111,4111,Evatt Shops Clancy St, ,-35.2091,149.07324,,,0,,,,
4112,4112,Clancy St opp Evatt Shops, ,-35.20927,149.07318,,,0,,,,
4596,4596,Phillip Av opp Shirley St, ,-35.24318,149.15224,,,0,,,,
4113,4113,Evatt PS Heydon Cr, ,-35.20744,149.07517,,,0,,,,
4597,4597,Phillip Av before Bradfield St, ,-35.24165,149.15001,,,0,,,,
1086,1086,Casey Cr opp Calwell PS, ,-35.43858,149.11041,,,0,,,,
3263,3263,National Cct opp Fitzroy St, ,-35.3138,149.13057,,,0,,,,
1085,1085,Calwell PS Casey Cr, ,-35.43869,149.11035,,,0,,,,
3262,3262,National Cct before Canberra Av, ,-35.31406,149.13037,,,0,,,,
1084,1084,Outtrim Av after Mountain Cct, ,-35.4357,149.10948,,,0,,,,
1083,1083,Outtrim Av after Costello Cct, ,-35.43562,149.10948,,,0,,,,
3261,3261,Parkes Pl opp John Gorton Building, ,-35.30118,149.13373,,,0,,,,
3260,3260,John Gorton Building Parkes Pl, ,-35.30119,149.13388,,,0,,,,
1082,1082,Outtrim Av before Gurr St, ,-35.43609,149.10483,,,0,,,,
1081,1081,Outtrim Av after 2nd Carter Cr, ,-35.43606,149.10467,,,0,,,,
3259,3259,The Treasury Building King Edward Tce, ,-35.29787,149.12891,,,0,,,,
3258,3258,National Library King Edward Tce, ,-35.29796,149.12927,,,0,,,,
1079,1079,Outtrim Av before 2nd Carter Cr, ,-35.4359,149.10202,,,0,,,,
1078,1078,Outtrim Av opp Duggan St, ,-35.43569,149.0984,,,0,,,,
4103,4103,Owen Dixon Dr after Douglass St, ,-35.19864,149.07257,,,0,,,,
4587,4587,Antill St opp Rosevear Pl, ,-35.24849,149.14465,,,0,,,,
4104,4104,Copland Dr after Owen Dixon Dr, ,-35.20039,149.07274,,,0,,,,
4588,4588,Antill St before Rosevear Pl, ,-35.24874,149.14456,,,0,,,,
4105,4105,Copland Dr before Owen Dixon Dr, ,-35.20028,149.07271,,,0,,,,
4589,4589,Antill St before Gale St, ,-35.24827,149.14668,,,0,,,,
4106,4106,Owen Dixon Dr opp Walkley Pl, ,-35.21149,149.08449,,,0,,,,
1091,1091,Calwell Park & Ride Johnson Dr, ,-35.4335,149.11128,,,0,,,,
1090,1090,Casey Cr opp O'Connor Cct, ,-35.43996,149.11324,,,0,,,,
4120,4120,William Webb Dr before Owen Dixon Dr, ,-35.21007,149.0818,,,0,,,,
4121,4121,William Webb Dr before Jeanne Young Cct, ,-35.21178,149.08138,,,0,,,,
4122,4122,William Webb Dr opp Jeanne Young Cct, ,-35.21156,149.08136,,,0,,,,
4123,4123,William Webb Dr before Rohan Rivett Cr, ,-35.21315,149.07909,,,0,,,,
4124,4124,William Webb Dr after 2nd Sproule Cct, ,-35.21306,149.07913,,,0,,,,
3277,3277,Golden Gr before Quiros St, ,-35.33667,149.12585,,,0,,,,
3276,3276,Golden Gr before Friendship St, ,-35.33666,149.12575,,,0,,,,
3275,3275,Golden Gr opp Alexander St, ,-35.33429,149.12624,,,0,,,,
3274,3274,Golden Gr after Friendship St, ,-35.3349,149.12569,,,0,,,,
1096,1096,Were St after Tharwa Dr, ,-35.44054,149.12068,,,0,,,,
1095,1095,Were St before Tharwa Dr, ,-35.44038,149.12071,,,0,,,,
3273,3273,Golden Gr opp Canberra Senior Grammar School, ,-35.33188,149.12854,,,0,,,,
3272,3272,Canberra Senior Grammar School Golden Gr, ,-35.33158,149.12882,,,0,,,,
1094,1094,St Francis of Assisi PS Casey Cr, ,-35.44106,149.11888,,,0,,,,
1093,1093,Johnson Dr Opp Calwell Park & Ride, ,-35.43321,149.1126,,,0,,,,
3271,3271,Monaro Cr after Flinders Way, ,-35.32912,149.12807,,,0,,,,
3270,3270,Monaro Cr before Flinders Way, ,-35.32966,149.12819,,,0,,,,
1092,1092,Casey Cr opp Calwell HS, ,-35.44112,149.11592,,,0,,,,
1089,1089,Casey Cr after O'Connor Cct, ,-35.44002,149.11314,,,0,,,,
4114,4114,Heydon Cr opp Evatt PS, ,-35.20777,149.07498,,,0,,,,
4115,4115,Heydon Cr before Owen Dixon Dr, ,-35.20741,149.0796,,,0,,,,
4116,4116,Heydon Cr after Owen Dixon Dr, ,-35.20752,149.07997,,,0,,,,
4119,4119,William Webb Dr after Owen Dixon Dr, ,-35.21013,149.08186,,,0,,,,
3280,3280,La Perouse St before Cygnet Cr, ,-35.3407,149.13008,,,0,,,,
4130,4130,Dumas St before 2nd Vagabond Cr, ,-35.21508,149.07344,,,0,,,,
4131,4131,Dumas St after Bennetts Cl, ,-35.21743,149.07388,,,0,,,,
4132,4132,Dumas St before 1st Vagabond Cr, ,-35.21751,149.07372,,,0,,,,
6311,6311,David Walsh Av before Desmond Ln, ,-35.17581,149.1463,,,0,,,,
4133,4133,Dumas St at 2nd Grover Cr, ,-35.21952,149.07216,,,0,,,,
6310,6310,David Walsh Av after Zakharov Av, ,-35.17517,149.14664,,,0,,,,
4134,4134,Dumas St before 2nd Buggy Cr, ,-35.21943,149.07207,,,0,,,,
6313,6313,Zakharov Av after Alice Berry St, ,-35.17181,149.14851,,,0,,,,
4135,4135,Dumas St opp 1st Bean Cr, ,-35.22221,149.07317,,,0,,,,
6312,6312,Zakharov Av after Justice Kelly St, ,-35.17136,149.14883,,,0,,,,
3288,3288,Carnegie Cr after Scott St, ,-35.3369,149.14066,,,0,,,,
3287,3287,Red Hill School La Perouse St, ,-35.33982,149.13402,,,0,,,,
3286,3286,Carnegie Cr after Finniss Cr, ,-35.33702,149.1366,,,0,,,,
3285,3285,La Perouse St opp Red Hill Shops, ,-35.34064,149.13101,,,0,,,,
3284,3284,La Perouse St before Dalrymple St, ,-35.33812,149.13579,,,0,,,,
3283,3283,La Perouse St before Nuyts St, ,-35.34031,149.12872,,,0,,,,
3282,3282,La Perouse St before Red Hill Shops, ,-35.34062,149.13222,,,0,,,,
3281,3281,La Perouse St after Golden Gr, ,-35.33979,149.12701,,,0,,,,
3279,3279,Golden Gr before La Perouse St, ,-35.33829,149.12631,,,0,,,,
3278,3278,Golden Gr after La Perouse St, ,-35.33876,149.12647,,,0,,,,
6304,6304,Overall Av after Shedden St, ,-35.17108,149.09476,,,0,,,,
4125,4125,William Webb Dr opp 2nd Sproule Cct, ,-35.21291,149.07657,,,0,,,,
4126,4126,William Webb Dr after 1st Sproule Cct, ,-35.21283,149.07665,,,0,,,,
6306,6306,Overall Av opp Tippett St, ,-35.17242,149.09178,,,0,,,,
4127,4127,William Webb Dr before Dumas St, ,-35.21357,149.07297,,,0,,,,
4128,4128,William Webb Dr before Clancy St, ,-35.21333,149.07318,,,0,,,,
6305,6305,Overall Av after Kingsland Pde, ,-35.17125,149.09549,,,0,,,,
4129,4129,Dumas St after 1st Baume Cr, ,-35.21469,149.07324,,,0,,,,
6308,6308,Overall Av after Powley St, ,-35.17594,149.09071,,,0,,,,
6307,6307,Overall Av before Tippett St, ,-35.17256,149.09187,,,0,,,,
6309,6309,Overall Av before 2nd John Crawford Cr, ,-35.1746,149.09094,,,0,,,,
3291,3291,Carnegie Cr after La Perouse St, ,-35.33695,149.13673,,,0,,,,
4140,4140,Dumas St opp 2nd Slessor Cr, ,-35.22089,149.07617,,,0,,,,
3290,3290,Caley Cr before Sprent St, ,-35.33753,149.14366,,,0,,,,
4141,4141,Dumas St at 2nd Slessor Cr, ,-35.2197,149.07846,,,0,,,,
6320,6320,Henry Williams St before Duguid St, ,-35.15701,149.14702,,,0,,,,
4142,4142,Dumas St after Gundaroo Dr, ,-35.21985,149.07871,,,0,,,,
4143,4143,Aikman Dr opp UC, ,-35.23823,149.07689,,,0,,,,
6322,6322,Essie Coffey St before Quagliotti St, ,-35.15371,149.14375,,,0,,,,
4144,4144,Aikman Dr before Townsend Pl, ,-35.2375,149.07692,,,0,,,,
6321,6321,Henry Williams after Mabo Bvd, ,-35.1575,149.14668,,,0,,,,
4145,4145,Emu Bank after Aikman Dr, ,-35.23975,149.07466,,,0,,,,
6324,6324,Essie Coffey St before Roy Marika St, ,-35.15397,149.13994,,,0,,,,
4146,4146,Emu Bank Bus Stn, ,-35.23959,149.07506,,,0,,,,
6323,6323,Essie Coffey St before Margaret Tucker St, ,-35.15378,149.14346,,,0,,,,
3299,3299,Captain Cook Cr before Austin St, ,-35.32688,149.13521,,,0,,,,
3297,3297,Caley Cr before Goyder St, ,-35.33947,149.14548,,,0,,,,
3296,3296,Bremer St before Hodgkinson St, ,-35.329,149.13469,,,0,,,,
3295,3295,Caley Cr after Sprent St, ,-35.33765,149.14389,,,0,,,,
3294,3294,Captain Cook Cr before Barrallier St, ,-35.32578,149.13525,,,0,,,,
3293,3293,Carnegie Cr before Caley Cr, ,-35.33669,149.14082,,,0,,,,
3292,3292,Caley Cr after Goyder St, ,-35.33946,149.14534,,,0,,,,
3289,3289,La Perouse St before Carnegie Cr, ,-35.33825,149.13567,,,0,,,,
4136,4136,Dumas St after 2nd Bean Cr, ,-35.22231,149.07306,,,0,,,,
6315,6315,Forde Shops Francis Forde Bvd, ,-35.17113,149.14307,,,0,,,,
4137,4137,Dumas St opp 2nd Bean Cr, ,-35.22215,149.07463,,,0,,,,
4138,4138,Dumas St after 1st Bean Cr, ,-35.22232,149.07454,,,0,,,,
6317,6317,Amy Ackman St after Turbayne Cr, ,-35.16251,149.14986,,,0,,,,
4139,4139,Dumas St after 1st Slessor Cr, ,-35.22081,149.07608,,,0,,,,
6316,6316,Amy Ackman St after Handbury Way, ,-35.16347,149.14874,,,0,,,,
6319,6319,Handbury Way before Mulligans Flat Rd, ,-35.15917,149.15025,,,0,,,,
6318,6318,Handbury St before Amy Ackman St, ,-35.15935,149.15149,,,0,,,,
4150,4150,Tillyard Dr after Blackwell Cct, ,-35.20482,149.03825,,,0,,,,
4151,4151,Tillyard Dr after McDougall St, ,-35.20223,149.04164,,,0,,,,
6331,6331,Neville Bonner PS Mabo Bvd, ,-35.16216,149.13951,,,0,,,,
4152,4152,Tillyard Dr after Crawford Cr, ,-35.20237,149.0416,,,0,,,,
6330,6330,Bonner Shops Mabo Bvd, ,-35.16131,149.13956,,,0,,,,
4153,4153,Tillyard Dr after Sadleir Pl, ,-35.20046,149.04305,,,0,,,,
6333,6333,Langtree Cr opp Jellicoe St, ,-35.20061,149.11331,,,0,,,,
4154,4154,Tillyard Dr after Spalding St, ,-35.2004,149.04327,,,0,,,,
6332,6332,Langtree Cr before 1st Drooka Cr, ,-35.20069,149.11363,,,0,,,,
4155,4155,Spalding St before Flierl Pl, ,-35.19929,149.04668,,,0,,,,
6335,6335,Abena Av after Taplow St, ,-35.20077,149.1041,,,0,,,,
4156,4156,Spalding St before Crawford Cr, ,-35.19937,149.04691,,,0,,,,
5003,5003,Southern Cross Dr before Ratcliffe Cr, ,-35.22938,149.04445,,,0,,,,
5004,5004,Baldwin Dr after 1st Maribyrnong Av, ,-35.22194,149.10039,,,0,,,,
4157,4157,Spalding St after Schwartz Pl, ,-35.20137,149.04965,,,0,,,,
6334,6334,Abena Av before Dobikin St, ,-35.20064,149.10413,,,0,,,,
6326,6326,Roden Cutler Dr before Essie Coffey St, ,-35.15524,149.13466,,,0,,,,
4147,4147,Charnwood Shops Tillyard Dr, ,-35.2056,149.03531,,,0,,,,
6325,6325,Essie Coffey St before Irinyili St, ,-35.1541,149.13954,,,0,,,,
4148,4148,Tillyard Dr opp Charnwood Shops, ,-35.20598,149.0352,,,0,,,,
6328,6328,Mobourne St before Mallett St, ,-35.16054,149.13693,,,0,,,,
4149,4149,Tillyard Dr after Geeves Ct, ,-35.20462,149.03818,,,0,,,,
6327,6327,Roden Cutler Dr after Essie Coffey St, ,-35.15585,149.13483,,,0,,,,
6329,6329,Mobourne St before Ben Blakeney St, ,-35.16044,149.13699,,,0,,,,
4161,4161,Alfred Hill Dr opp Henslowe Pl, ,-35.20662,149.05211,,,0,,,,
4162,4162,Alfred Hill Dr after Henslowe Pl, ,-35.20671,149.05197,,,0,,,,
5010,5010,Baldwin Dr after Stockman Av, ,-35.22839,149.09746,,,0,,,,
4163,4163,Alfred Hill Dr after Bishop Pl, ,-35.20666,149.05447,,,0,,,,
5011,5011,Baldwin Dr before 2nd Maribyrnong Av, ,-35.2281,149.09828,,,0,,,,
4164,4164,Alfred Hill Dr before Henslowe Pl, ,-35.20676,149.05432,,,0,,,,
5012,5012,Baldwin Dr before Stockman Av, ,-35.22989,149.09453,,,0,,,,
4165,4165,Alfred Hill Dr opp Mount Rogers PS, ,-35.20841,149.0573,,,0,,,,
4166,4166,Mount Rogers PS Alfred Hill Dr, ,-35.20849,149.05693,,,0,,,,
4167,4167,Alfred Hill Dr after 1st Crossley Cl, ,-35.20684,149.05881,,,0,,,,
4168,4168,Alfred Hill Dr after Levey Pl, ,-35.20629,149.0591,,,0,,,,
4160,4160,Spalding St after Kingsford Smith Dr, ,-35.20343,149.05029,,,0,,,,
5005,5005,Baldwin Dr opp 2nd Maribyrnong Av, ,-35.22183,149.1002,,,0,,,,
4158,4158,Spalding St opp Schwarz Pl, ,-35.20126,149.04953,,,0,,,,
4159,4159,Spalding St before Kingsford Smith Dr, ,-35.20327,149.05029,,,0,,,,
5007,5007,UC High School Kaleen Baldwin Dr, ,-35.22526,149.10048,,,0,,,,
6339,6339,David Walsh Av before Max Purnell St, ,-35.17891,149.14427,,,0,,,,
5008,5008,Baldwin Dr after Kaleen HS, ,-35.22681,149.09959,,,0,,,,
6338,6338,David Walsh Av opp Max Purnell St, ,-35.17885,149.14473,,,0,,,,
5009,5009,Baldwin Dr before Kaleen HS, ,-35.22674,149.09952,,,0,,,,
4172,4172,Moynihan St after Fitzhardinge Cr, ,-35.21501,149.06345,,,0,,,,
4173,4173,Moynihan St before 2nd Ligertwood St, ,-35.21486,149.06459,,,0,,,,
4174,4174,Moynihan St before Callaghan St, ,-35.21492,149.06567,,,0,,,,
5021,5021,Belconnen Way after Petterd St, ,-35.24353,149.05464,,,0,,,,
4175,4175,Moynihan St before 2nd Alderman St, ,-35.21425,149.06725,,,0,,,,
5022,5022,Kingsford Smith Dr after Wirraway Cr, ,-35.23195,149.03445,,,0,,,,
4176,4176,Moynihan St after De Lissa St, ,-35.21426,149.06769,,,0,,,,
4177,4177,Moynihan St before Norton St, ,-35.21436,149.07008,,,0,,,,
5024,5024,Southern Cross Dr before Ross Smith Cr, ,-35.23041,149.04651,,,0,,,,
4178,4178,Moynihan St after William Webb Dr, ,-35.21479,149.07054,,,0,,,,
4179,4179,William Webb Dr opp Callaghan St, ,-35.21639,149.06995,,,0,,,,
5026,5026,Kerrigan St opp Douglas Waterhouse Dr, ,-35.18939,149.02171,,,0,,,,
4171,4171,Moynihan St after 1st Deffell St, ,-35.21455,149.06178,,,0,,,,
5017,5017,Chuculba Cr after 1st Mirrabucca Cr, ,-35.20969,149.09042,,,0,,,,
5030,5030,Spofforth St after Messsenger St, ,-35.22497,149.0051,,,0,,,,
5031,5031,Canberra Av opp Geelong St, ,-35.33331,149.16647,,,0,,,,
5032,5032,Chuculba Cr after 2nd Canopus Cr, ,-35.20968,149.09016,,,0,,,,
5033,5033,Flagstaff St before Ivo Whitton Cct SSO, ,-35.39305,149.04016,,,0,,,,
5034,5034,Ivo Whitton Cct after James Scott Cl SSO, ,-35.39486,149.0372,,,0,,,,
4188,4188,Haydon Dr after College St, ,-35.24136,149.09007,,,0,,,,
5035,5035,Ivo Whitton Cct after 1st Lemprierre Cr SSO, ,-35.39145,149.0379,,,0,,,,
1909,1909,Wanniassa Park & Ride South, ,-35.39018,149.08356,,,0,,,,
4189,4189,Southern Cross Dr after Ross Smith Cr, ,-35.22898,149.0407,,,0,,,,
5036,5036,Learmonth Dr opp 1st Meredith Cct SSO, ,-35.39318,149.04611,,,0,,,,
1908,1908,Wanniassa Park & Ride North, ,-35.38959,149.08469,,,0,,,,
4180,4180,William Webb Dr before Callaghan St, ,-35.21657,149.06953,,,0,,,,
4181,4181,169 William Webb Dr, ,-35.21988,149.06987,,,0,,,,
4182,4182,William Webb Dr before Croke Pl, ,-35.21997,149.06981,,,0,,,,
1907,1907,Carruthers St before Theodore St, ,-35.33182,149.07929,,,0,,,,
5028,5028,Southern Cross Dr after 1st Ratcliffe St, ,-35.23202,149.04976,,,0,,,,
1906,1906,Langdon Av opp Wanniassa Shops, ,-35.39109,149.08694,,,0,,,,
1905,1905,Wanniassa Shops Langdon Av, ,-35.39105,149.08678,,,0,,,,
5029,5029,Southern Cross Dr before Chewings St, ,-35.23251,149.04999,,,0,,,,
1904,1904,Knoke Av after 1st Mina Wylie Cr, ,-35.4639,149.08318,,,0,,,,
1903,1903,Callaway Cr after 2nd Myles Connell Cr, ,-35.46191,149.08223,,,0,,,,
4194,4194,St Francis Xavier College Kingsford Smith Dr, ,-35.22354,149.03909,,,0,,,,
5041,5041,Pro Hart Av after Ariotti St, ,-35.22943,148.99497,,,0,,,,
5042,5042,Baldwin Dr opp UC High School Kaleen, ,-35.22437,149.10051,,,0,,,,
4195,4195,Kingsford Smith Dr opp Krefft St, ,-35.21961,149.04134,,,0,,,,
4196,4196,Kingsford Smith Dr after Ginninderra Dr, ,-35.21907,149.04225,,,0,,,,
5043,5043,Archdall St before Fleay Pl, ,-35.19995,149.0157,,,0,,,,
5044,5044,Owen Dixon Dr after Walkley Pl, ,-35.21199,149.08456,,,0,,,,
4197,4197,Companion Cr after Kingsford Smith Dr, ,-35.21322,149.04526,,,0,,,,
4198,4198,Companion Cr after Dolling Cr, ,-35.21311,149.04529,,,0,,,,
4199,4199,Companion Cr after 2nd Vickers Cr, ,-35.21135,149.04279,,,0,,,,
4190,4190,Southern Cross Dr after Kingsford Smith Dr, ,-35.22866,149.04056,,,0,,,,
4191,4191,Kingsford Smith Dr after Southern Cross Dr, ,-35.22577,149.03633,,,0,,,,
4192,4192,Kingsford Smith Dr before Southern Cross Dr, ,-35.22632,149.03618,,,0,,,,
4193,4193,Kingsford Smith Dr opp St Francis Xavier College, ,-35.22427,149.03796,,,0,,,,
5040,5040,Learmonth Dr after 2nd Meredith Cct SSO, ,-35.39337,149.04604,,,0,,,,
5038,5038,Pro Hart Av after Stockdill Dr, ,-35.23252,148.99937,,,0,,,,
5039,5039,Pro Hart Av opp Stockdill Dr, ,-35.23289,148.99811,,,0,,,,
5052,5052,Gundaroo Dr after Nudurr Dr, ,-35.19699,149.10565,,,0,,,,
5053,5053,Gundaroo Dr before Burrowa St, ,-35.19427,149.11006,,,0,,,,
5054,5054,Gundaroo Dr after Burrowa St, ,-35.19386,149.11085,,,0,,,,
5050,5050,Pro Hart Av after McClymont Way, ,-35.22954,148.99513,,,0,,,,
5051,5051,Gundaroo Dr before Candblebark Cl, ,-35.19665,149.10576,,,0,,,,
5063,5063,Temperley St after Dobbin Cct, ,-35.18449,149.09184,,,0,,,,
5064,5064,Temperley St before Stebman Pl, ,-35.18613,149.09299,,,0,,,,
5066,5066,Temperley St before Vine Pl, ,-35.18803,149.09416,,,0,,,,
5067,5067,Temperley St opp Stedman Pl, ,-35.18616,149.0928,,,0,,,,
5068,5068,Temperley St before Krantzcke Cct, ,-35.18989,149.09537,,,0,,,,
5069,5069,Temperley St before 2nd Sue Geh Cct, ,-35.18809,149.09419,,,0,,,,
5062,5062,Temperley St after Curran Dr, ,-35.18446,149.09203,,,0,,,,
0600,0600,O'Hanlon Pl after Gold Creek Rd, ,-35.19212,149.08597,,,0,,,,
0601,0601,O'Hanlon Pl before Gold Creek Rd, ,-35.19214,149.08608,,,0,,,,
5074,5074,Lexcen Av after Temperley St, ,-35.18862,149.10147,,,0,,,,
5075,5075,Lexcen Av opp Temperley St, ,-35.18868,149.10159,,,0,,,,
5076,5076,Temperley St before 1st Sue Geh Cct, ,-35.19237,149.09581,,,0,,,,
8100,8100,Gungahlin Place Platform 1, ,-35.1856,149.13549,,,0,,,,
5077,5077,Temperley St after 2nd Whitfield Cct, ,-35.19227,149.09847,,,0,,,,
8105,8105,Manning Clark Crescent Platform 2, ,-35.18704,149.14341,,,0,,,,
5078,5078,Temperley St after Wendy Ey Pl, ,-35.1907,149.10005,,,0,,,,
8106,8106,Mapleton Avenue Platform 1, ,-35.19343,149.15101,,,0,,,,
5079,5079,Temperley St before 2nd Whitfield Cct, ,-35.19075,149.10014,,,0,,,,
8104,8104,Manning Clark Crescent Platform 1, ,-35.18696,149.14342,,,0,,,,
5070,5070,Temperley St opp 2nd Sue Geh Cct, ,-35.19261,149.09631,,,0,,,,
5071,5071,Temperley St before 2nd McRitchie Cct, ,-35.18976,149.09528,,,0,,,,
5072,5072,Kelleway Av before Lexcen Av, ,-35.1834,149.09953,,,0,,,,
5073,5073,Kelleway Av after Lexcen Av, ,-35.18328,149.09955,,,0,,,,
8112,8112,Sandford Street Platform 1, ,-35.22163,149.1447,,,0,,,,
5085,5085,Gozzard St before Swain St, ,-35.18167,149.13312,,,0,,,,
8113,8113,Sandford Street Platform 2, ,-35.22163,149.14463,,,0,,,,
5086,5086,Gozzard St before Bruning St, ,-35.18179,149.13321,,,0,,,,
8110,8110,Well Station Drive Platform 1, ,-35.20905,149.1474,,,0,,,,
8111,8111,Well Station Drive Platform 2, ,-35.20905,149.14731,,,0,,,,
5088,5088,Spofforth St before Drake Brockman Dr, ,-35.22872,149.00716,,,0,,,,
8116,8116,Phillip Avenue Platform 1, ,-35.23585,149.14393,,,0,,,,
5089,5089,Spofforth St after Strockdill Dr, ,-35.22876,149.00702,,,0,,,,
8117,8117,Phillip Avenue Platform 2, ,-35.2358,149.14389,,,0,,,,
8114,8114,EPIC and Racecourse Platform 1, ,-35.2285,149.14424,,,0,,,,
8115,8115,EPIC and Racecourse Platform 2, ,-35.2285,149.14422,,,0,,,,
5080,5080,Katherine Av opp Auburn St, ,-35.16808,149.12799,,,0,,,,
5081,5081,Katherine Av before Proserpine Cct, ,-35.16916,149.12941,,,0,,,,
5082,5082,Katherine Av opp Cooloola St, ,-35.16946,149.13182,,,0,,,,
5083,5083,The Valley Av opp Burgmann School Valley Campus, ,-35.18693,149.12405,,,0,,,,
5084,5084,Burgmann Anglican School Valley Campus, ,-35.18776,149.12331,,,0,,,,
8109,8109,Nullarbor Avenue Platform 2, ,-35.20037,149.14929,,,0,,,,
2809,2809,John Gorton Dr after Steve Irwin Av, ,-35.31942,149.03665,,,0,,,,
8107,8107,Mapleton Avenue Platform 2, ,-35.19342,149.15093,,,0,,,,
2807,2807,Coaldrake Av after Sibosado St, ,-35.30929,149.02219,,,0,,,,
8108,8108,Nullarbor Avenue Platform 1, ,-35.20038,149.14938,,,0,,,,
2806,2806,Steve Irwin Av after John Gorton Dr, ,-35.3204,149.03667,,,0,,,,
2805,2805,Steve Irwin Av before David Fleay St, ,-35.32456,149.03636,,,0,,,,
2803,2803,Steve Irwin Av before Ulysses Cct, ,-35.32437,149.03626,,,0,,,,
8123,8123,Macarthur Avenue Platform 2, ,-35.26016,149.13216,,,0,,,,
8124,8124,Ipima Street Platform 1, ,-35.2659,149.13127,,,0,,,,
8121,8121,Dickson Platform 2, ,-35.25056,149.13373,,,0,,,,
5098,5098,Lance Hill Av before 1st Evelyn Owen Cr, ,-35.19716,149.02184,,,0,,,,
8122,8122,Macarthur Avenue Platform 1, ,-35.26016,149.1322,,,0,,,,
5099,5099,Lance Hill Av after Shoobridge Cct, ,-35.19516,149.02037,,,0,,,,
8127,8127,Elouera Street Platform 2, ,-35.27262,149.13016,,,0,,,,
8125,8125,Ipima Street Platform 2, ,-35.26589,149.13124,,,0,,,,
8126,8126,Elouera Street Platform 1, ,-35.27262,149.1302,,,0,,,,
8120,8120,Dickson Platform 1, ,-35.25056,149.13376,,,0,,,,
2812,2812,Cotter Rd after Harold White Av, ,-35.32539,149.04463,,,0,,,,
2811,2811,John Gorton Dr after Cotter Rd, ,-35.32478,149.04338,,,0,,,,
2810,2810,John Gorton Dr after Fred Daly Av, ,-35.32001,149.03792,,,0,,,,
8118,8118,Swinden Street Platform 1, ,-35.24447,149.13462,,,0,,,,
2818,2818,Bielski St opp Evelyn Scott School SSO, ,-35.30656,149.02631,,,0,,,,
8119,8119,Swinden Street Platform 2, ,-35.24446,149.1345,,,0,,,,
2817,2817,Evelyn Scott School Bielski St, ,-35.3063,149.02641,,,0,,,,
2813,2813,Coaldrake Av after Batterham Cr, ,-35.30947,149.02176,,,0,,,,
2822,2822,Cotter Rd After Streeton Dr, ,-35.32697,149.05264,,,0,,,,
2821,2821,Streeton Dr after Dixon Dr, ,-35.32795,149.05353,,,0,,,,
2820,2820,Streeton Drive after Unwin Pl, ,-35.32918,149.05393,,,0,,,,
8129,8129,Alinga Street Platform 2, ,-35.27793,149.12931,,,0,,,,
2829,2829,Kondelea Way before Eggins St, ,-35.30523,149.02135,,,0,,,,
2828,2828,Kondelea Way before Goldbloom St, ,-35.30472,149.02129,,,0,,,,
2825,2825,Canberra Av after Whyalla St, ,-35.33595,149.17278,,,0,,,,
2824,2824,Fyshwick Park & Ride Iron Knob St, ,-35.33869,149.18279,,,0,,,,
2834,2834,Holborow Av after Greenwood St, ,-35.29894,149.02998,,,0,,,,
2833,2833,Holborow Av after Eureka Way, ,-35.29889,149.02681,,,0,,,,
2832,2832,Holborow Av before Eureka Way, ,-35.29913,149.02673,,,0,,,,
1501,1501,Beattie Cr after 2nd Longman St, ,-35.4186,149.11522,,,0,,,,
2831,2831,Felstead Vista opp Denman Prospect Shops, ,-35.29904,149.02229,,,0,,,,
1500,1500,Beattie Cr after Goldstein Cr, ,-35.41831,149.11557,,,0,,,,
2830,2830,Denman Prospect Shops Felstead Vista, ,-35.29933,149.02188,,,0,,,,
1509,1509,Castleton Cr opp Easterbrook Pl, ,-35.41009,149.10497,,,0,,,,
2839,2839,John Gorton Dr opp Holborow Av, ,-35.29966,149.03423,,,0,,,,
1508,1508,Castleton Cr before Easterbrook Pl, ,-35.40996,149.10489,,,0,,,,
2838,2838,John Gorton Dr after Holborow Av, ,-35.2986,149.03404,,,0,,,,
1507,1507,Castleton Cr opp 1st Wheatley St, ,-35.41198,149.10556,,,0,,,,
2837,2837,John Gorton Dr before Wyndham Av, ,-35.30465,149.03217,,,0,,,,
1506,1506,Castleton Cr after 2nd Wheatley St, ,-35.41207,149.1058,,,0,,,,
2836,2836,John Gorton Dr after Wyndham Av, ,-35.30436,149.032,,,0,,,,
1505,1505,Castleton Cr opp Gowrie Shops, ,-35.41401,149.10939,,,0,,,,
2835,2835,Holborow Av opp Greenwood St, ,-35.29861,149.03195,,,0,,,,
1504,1504,Gowrie Shops Castleton Cr, ,-35.41387,149.10933,,,0,,,,
2845,2845,John Gorton Dr after Opperman Av, ,-35.312,149.03192,,,0,,,,
1513,1513,Castleton Cr before Wray Pl, ,-35.4062,149.11121,,,0,,,,
2843,2843,Harold White Av before Woodberry Av, ,-35.32432,149.04474,,,0,,,,
1512,1512,Castleton Cr after Peeler Pl, ,-35.40606,149.11105,,,0,,,,
2842,2842,Harold White Av after Woodberry Av, ,-35.32446,149.0448,,,0,,,,
1511,1511,Castleton Cr after Middleton Cct, ,-35.40718,149.10651,,,0,,,,
2841,2841,Annabelle View after Harold White Av, ,-35.32031,149.04678,,,0,,,,
1510,1510,Castleton Cr after Farcomb Pl, ,-35.40735,149.10646,,,0,,,,
2840,2840,Annabelle View before Harold White Av, ,-35.3203,149.04698,,,0,,,,
2849,2849,Annabelle View before Janine Haines Tce, ,-35.31628,149.04414,,,0,,,,
2848,2848,Opperman Av before Uriarra Rd, ,-35.31315,149.0283,,,0,,,,
2847,2847,Opperman Av after Porter St, ,-35.31297,149.02904,,,0,,,,
2846,2846,John Gorton Dr opp Opperman Av, ,-35.31297,149.03264,,,0,,,,
2850,2850,Annabelle View before Ken Tribe St, ,-35.31659,149.04411,,,0,,,,
1529,1529,Bugden Av after Mactier Pl, ,-35.41447,149.10454,,,0,,,,
1536,1536,Bugden Av before 2nd Galleghan Cct, ,-35.41573,149.11005,,,0,,,,
1535,1535,Bugden Av after Beardsmore Pl, ,-35.41581,149.10983,,,0,,,,
1534,1534,Bugden Av before 1st Ingram St, ,-35.41795,149.10785,,,0,,,,
1533,1533,Bugden Av after 2nd Dalziel St, ,-35.41808,149.10739,,,0,,,,
1532,1532,Bugden Av after 1st Stacy St, ,-35.41693,149.10478,,,0,,,,
0200,0200,Longstay Caravan Park in Grounds SSO, ,-35.34723,149.15283,,,0,,,,
1531,1531,Bugden Av after 1st Dalziel St, ,-35.41714,149.10486,,,0,,,,
0201,0201,Fremantle Dr after 1st McKail Cr, ,-35.34704,149.04794,,,0,,,,
1530,1530,Bugden Av opp Denehy Pl, ,-35.41468,149.1046,,,0,,,,
1539,1539,Norriss St opp Caroline Chisholm Senior School, ,-35.41643,149.12103,,,0,,,,
1538,1538,Norriss St opp 2nd Woodburn St, ,-35.41691,149.11797,,,0,,,,
1537,1537,Norriss St after 1st Woodburn St, ,-35.41685,149.11777,,,0,,,,
1550,1550,Heagney Cr after Alston St, ,-35.42428,149.12347,,,0,,,,
5904,5904,Burdekin Av after Bywaters St, ,-35.17072,149.12096,,,0,,,,
1547,1547,Baskerville St before Hambidge Cr, ,-35.41958,149.12534,,,0,,,,
1546,1546,Baskerville St after Hambidge Cr, ,-35.41953,149.12543,,,0,,,,
1545,1545,Hambidge Cr after 1st Alice Jackson Cr, ,-35.4166,149.12985,,,0,,,,
1544,1544,64 Hambidge Cr, ,-35.4181,149.12733,,,0,,,,
1543,1543,Hambidge Cr opp 64, ,-35.41827,149.12721,,,0,,,,
1542,1542,Hambidge Cr before Proctor St, ,-35.41604,149.13019,,,0,,,,
1540,1540,Caroline Chisholm Senior School Norriss St, ,-35.41658,149.12083,,,0,,,,
5901,5901,Burdekin Av opp Amaroo School, ,-35.16575,149.1268,,,0,,,,
5902,5902,Burdekin Av opp Good Shepherd PS, ,-35.16613,149.12473,,,0,,,,
1549,1549,Baskerville St opp 2nd Laughton St, ,-35.42196,149.12453,,,0,,,,
5903,5903,Burdekin Av before Traine Ct, ,-35.16845,149.12213,,,0,,,,
1548,1548,Baskerville St before 1st Laughton St, ,-35.42205,149.12439,,,0,,,,
1561,1561,Louisa Lawson Cr after 1st May Maxwell Cr, ,-35.4176,149.13725,,,0,,,,
1560,1560,Louisa Lawson Cr before Gellatly Pl, ,-35.41769,149.13722,,,0,,,,
1558,1558,Clift Cr before Meeson St, ,-35.4286,149.11858,,,0,,,,
1557,1557,Clift Cr opp Meeson St, ,-35.42867,149.1185,,,0,,,,
2403,2403,Wollongong St before Maryborough St, ,-35.32745,149.17752,,,0,,,,
1556,1556,Richardson Shops Clift Cr, ,-35.42726,149.1158,,,0,,,,
1555,1555,Heagney Cr opp 2nd McLorinan St, ,-35.4242,149.1172,,,0,,,,
2401,2401,Newcastle St before Molonglo Mall, ,-35.32912,149.17816,,,0,,,,
1554,1554,Heagney Cr after 2nd Mofflin St, ,-35.42431,149.11745,,,0,,,,
1553,1553,Heagney Cr before 1st Moffin St, ,-35.42434,149.12126,,,0,,,,
1552,1552,Heagney Cr after Goldstein Cr, ,-35.42425,149.12134,,,0,,,,
1551,1551,Heagney Cr after 1st Muntz St, ,-35.42441,149.12369,,,0,,,,
2409,2409,Burrinjuck Cr after 1st Serpentine St, ,-35.33289,149.03734,,,0,,,,
2408,2408,Blackwood Tce after Hyndes Cr, ,-35.33556,149.04636,,,0,,,,
2407,2407,Wollongong St after Collie St, ,-35.32673,149.17839,,,0,,,,
1559,1559,Clift Cr opp Richardson Shops, ,-35.42733,149.116,,,0,,,,
2406,2406,Albany St before Collie St, ,-35.32741,149.1812,,,0,,,,
2416,2416,Nemarang Cr opp Waramanga Shops, ,-35.35268,149.06061,,,0,,,,
1569,1569,Louisa Lawson Cr before Litchfield Pl, ,-35.41385,149.1329,,,0,,,,
1568,1568,Louisa Lawson Cr before 2nd Aronson Cr, ,-35.41388,149.133,,,0,,,,
2415,2415,Waramanga Shops Nemerang Cr, ,-35.35248,149.06061,,,0,,,,
1567,1567,Louisa Lawson Cr after 1st Aronson Cr, ,-35.41258,149.1351,,,0,,,,
1566,1566,Louisa Lawson Cr before 2nd Willoughby Cr, ,-35.41251,149.13527,,,0,,,,
1565,1565,Louisa Lawson Cr after 2nd Willoughby Cr, ,-35.41226,149.13741,,,0,,,,
1564,1564,Louisa Lawson Cr before 1st Aronson Cr, ,-35.41232,149.13751,,,0,,,,
1563,1563,Louisa Lawson Cr opp Fenston Pl, ,-35.41609,149.13936,,,0,,,,
2410,2410,Wyangala St before Hindmarsh Dr, ,-35.34256,149.0323,,,0,,,,
1562,1562,Louisa Lawson Cr after Fenston Pl, ,-35.41615,149.13944,,,0,,,,
2419,2419,Yambina Cr before Wirangu Pl, ,-35.3574,149.05946,,,0,,,,
2418,2418,Nemarang Cr opp Arawang PS, ,-35.3554,149.06038,,,0,,,,
2417,2417,Arawang PS Nemerang Cr, ,-35.35548,149.06024,,,0,,,,
2430,2430,Bangalay Cr opp Casuarina St, ,-35.34901,149.03667,,,0,,,,
4606,4606,Thynne St after Traeger Ct, ,-35.24174,149.09271,,,0,,,,
2427,2427,Fremantle Dr after 1st Reveley Cr, ,-35.35336,149.04755,,,0,,,,
2426,2426,Fremantle Dr opp 2nd Reveley Cr, ,-35.35251,149.04904,,,0,,,,
4607,4607,Macpherson St after Lilley St, ,-35.26176,149.12079,,,0,,,,
4608,4608,Macpherson St after Tate St, ,-35.26165,149.12073,,,0,,,,
2425,2425,Fremantle Dr after 2nd Mackie Cr, ,-35.35245,149.04921,,,0,,,,
1577,1577,Duggan St before Outtrim Av, ,-35.43649,149.09761,,,0,,,,
2424,2424,Fremantle Dr opp Bunbury St, ,-35.34894,149.04942,,,0,,,,
4609,4609,O'Connor Shops Macpherson St, ,-35.26458,149.12218,,,0,,,,
2423,2423,Fremantle Dr after Bunbury St, ,-35.34901,149.04955,,,0,,,,
1576,1576,Duggan St after Outtrim Av, ,-35.43652,149.09775,,,0,,,,
2421,2421,Yambina Cr before Badimara St, ,-35.35776,149.05948,,,0,,,,
4603,4603,Northbourne Av after Swinden St, ,-35.24488,149.13466,,,0,,,,
4604,4604,Yowani Country Club Northbourne Av, ,-35.24339,149.13466,,,0,,,,
2429,2429,Bangalay Cr after Casuarina St, ,-35.34901,149.03642,,,0,,,,
4605,4605,Thynne St opp Eardley St, ,-35.24152,149.09282,,,0,,,,
2428,2428,Fremantle Dr before Crowder Cct, ,-35.35385,149.04689,,,0,,,,
1110,1110,Louis Loder St before 2nd Hartung Cr, ,-35.44558,149.11667,,,0,,,,
1593,1593,Clive Steele Av before Kenyon Cct SSO, ,-35.41572,149.0912,,,0,,,,
1592,1592,Clive Steele Av after Haigh Pl SSO, ,-35.41555,149.09139,,,0,,,,
1591,1591,Clive Steele Av after Barraclough Cr SSO, ,-35.41505,149.09413,,,0,,,,
1590,1590,Clive Steele Av before 2nd Alabaster St SSO, ,-35.41496,149.0939,,,0,,,,
2438,2438,Carbeen St before Hindmarsh Dr, ,-35.34238,149.04552,,,0,,,,
2437,2437,Carbeen St before Tristania St, ,-35.34245,149.04569,,,0,,,,
2436,2436,Carbeen St after 1st Gungurra Cr, ,-35.34413,149.04298,,,0,,,,
2435,2435,Carbeen St opp 2nd Gungurra Cr, ,-35.34402,149.04305,,,0,,,,
2434,2434,Carbeen St after 2nd Gungurra Cr, ,-35.34447,149.03946,,,0,,,,
2433,2433,Carbeen St after Bangalay Cr, ,-35.34435,149.03951,,,0,,,,
2432,2432,Rivett Shops Bangalay Cr, ,-35.34703,149.03603,,,0,,,,
2431,2431,Bangalay Cr opp Rivett Shops, ,-35.34678,149.03597,,,0,,,,
4610,4610,Macpherson St opp O'Connor Shops, ,-35.26383,149.12157,,,0,,,,
4611,4611,McCaughey St before Condamine St, ,-35.26604,149.12308,,,0,,,,
4612,4612,McCaughey St after Condamine St, ,-35.26645,149.12326,,,0,,,,
4613,4613,McCaughey St before Masson St, ,-35.26842,149.1236,,,0,,,,
4614,4614,McCaughey St at Masson St, ,-35.27014,149.12323,,,0,,,,
4615,4615,McCaughey St after Masson St, ,-35.27167,149.12306,,,0,,,,
1109,1109,Louis Loder St at 1st Vonwiller Cr, ,-35.44564,149.11678,,,0,,,,
2439,2439,Kootara Cr after 2nd Gymea St, ,-35.33277,149.15605,,,0,,,,
4630,4630,Old Canberra House Lennox Crossing, ,-35.28814,149.11691,,,0,,,,
1121,1121,Deamer Cr before Meeson St, ,-35.42924,149.12145,,,0,,,,
2452,2452,Schlich St after Novar St, ,-35.30377,149.09909,,,0,,,,
2451,2451,Schlich St before Novar St, ,-35.30383,149.09872,,,0,,,,
1120,1120,Clift Cr after 1st Fullerton Cr, ,-35.43112,149.11935,,,0,,,,
2450,2450,Novar St opp Yarralumla Shops, ,-35.30738,149.09831,,,0,,,,
4628,4628,Liversidge St before Balmain Cr, ,-35.28509,149.11865,,,0,,,,
2449,2449,Novar St after Weston St, ,-35.31015,149.09828,,,0,,,,
1118,1118,Clift Cr after Johnson Dr, ,-35.43311,149.11823,,,0,,,,
2448,2448,Novar St before Kintore Cr, ,-35.31203,149.0983,,,0,,,,
4629,4629,Liversidge St after Brian Lewis Cr, ,-35.28478,149.11908,,,0,,,,
1117,1117,Clift Cr before Johnson Dr, ,-35.43325,149.11842,,,0,,,,
1116,1116,Louis Loder St at 2nd Conlon Cr, ,-35.4506,149.11726,,,0,,,,
1599,1599,McBryde Cr opp Trinity Christian School, ,-35.40742,149.08708,,,0,,,,
1115,1115,Louis Loder St before 2nd Vonwiller Cr, ,-35.45055,149.11742,,,0,,,,
1114,1114,44 Louis Loder St, ,-35.44813,149.11527,,,0,,,,
1597,1597,Newman-Morris Cct after Taverner St, ,-35.40426,149.07761,,,0,,,,
2444,2444,Kootara Cr before McMillan Cr, ,-35.32626,149.14917,,,0,,,,
1113,1113,Louis Loder St after 1st Cochrane Cr, ,-35.44801,149.11522,,,0,,,,
1596,1596,Newman-Morris Cct before Taverner St, ,-35.40425,149.07748,,,0,,,,
1112,1112,Louis Loder St opp 1st Hartung Cr, ,-35.44652,149.11488,,,0,,,,
1111,1111,Louis Loder St after 2nd Mehaffey Cr, ,-35.44654,149.11452,,,0,,,,
1119,1119,Clift Cr after 2nd Chauncy Cr, ,-35.43116,149.11917,,,0,,,,
4640,4640,Templeton St opp Cook Shops, ,-35.25975,149.06371,,,0,,,,
4641,4641,Cook Shops Templeton St, ,-35.25959,149.06372,,,0,,,,
1132,1132,Heagney Cr opp Deamer Cr, ,-35.42657,149.13025,,,0,,,,
2463,2463,Julia Flynn Av after 2nd Rule St, ,-35.37172,149.11346,,,0,,,,
3310,3310,Captain Cook Cr before Jerrabomberra Av SSO, ,-35.3344,149.14563,,,0,,,,
2462,2462,Julia Flynn Av opp Dorsch St, ,-35.37024,149.11173,,,0,,,,
1131,1131,Heagney Cr before Deamer Cr, ,-35.42649,149.131,,,0,,,,
1130,1130,Deamer Cr before Heagney Cr, ,-35.42719,149.12961,,,0,,,,
2461,2461,Julia Flynn Av after Dorsch St, ,-35.37003,149.11147,,,0,,,,
2460,2460,Isaacs Shops Julia Flynn Av, ,-35.36729,149.11263,,,0,,,,
4639,4639,Templeton St after Ellis St, ,-35.25915,149.06082,,,0,,,,
1129,1129,Deamer Cr after Heagney Cr, ,-35.42732,149.12981,,,0,,,,
2459,2459,Julia Flynn Av opp Isaacs Shops, ,-35.36722,149.11282,,,0,,,,
1128,1128,Deamer Cr after 2nd Nina Jones Cr, ,-35.42979,149.12868,,,0,,,,
1127,1127,Deamer Cr opp 1st Nina Jones Cr, ,-35.42942,149.1288,,,0,,,,
2458,2458,Julia Flynn Av before 2nd Ringrose Cr, ,-35.36576,149.11252,,,0,,,,
2457,2457,Julia Flynn Av before Crook Pl, ,-35.36558,149.11258,,,0,,,,
1126,1126,Deamer Cr opp 69, ,-35.43172,149.12698,,,0,,,,
1125,1125,69 Deamer Cr, ,-35.4315,149.12706,,,0,,,,
1124,1124,Deamer Cr opp 1st Twamley Cr, ,-35.43092,149.12343,,,0,,,,
1123,1123,Deamer Cr before 2nd Twamley Cr, ,-35.43085,149.12354,,,0,,,,
3301,3301,Bremer St before Captain Cook Cr, ,-35.32898,149.13443,,,0,,,,
2454,2454,Julia Flynn Av before 1st Ellwood Cr, ,-35.36422,149.11032,,,0,,,,
2453,2453,Tyagarah St after Culgoa Cct, ,-35.34992,149.10616,,,0,,,,
1122,1122,Deamer Cr before Clift Cr, ,-35.42936,149.12094,,,0,,,,
4631,4631,Constables Cottage Lennox Crossing, ,-35.28778,149.11707,,,0,,,,
4632,4632,National Museum Lennox Crossing, ,-35.29167,149.11876,,,0,,,,
4634,4634,Kerrigan St before Douglas Waterhouse Dr, ,-35.18914,149.02206,,,0,,,,
4635,4635,Kerrigan St opp Traeger St, ,-35.1892,149.02652,,,0,,,,
4636,4636,Redfern St after Templeton St, ,-35.25666,149.05641,,,0,,,,
4637,4637,Redfern St after Coulter Dr, ,-35.25661,149.05621,,,0,,,,
4638,4638,Templeton St opp Ellis St, ,-35.25896,149.06007,,,0,,,,
3308,3308,Carnegie Cr before Captain Cook Cr SSO, ,-35.33456,149.14352,,,0,,,,
3321,3321,Wentworth Av opp Canberra Railway Stn, ,-35.31923,149.14679,,,0,,,,
1143,1143,Proctor St opp Maclean St, ,-35.41521,149.12515,,,0,,,,
2474,2474,Lambrigg St after Prescott St, ,-35.37796,149.10376,,,0,,,,
3320,3320,Canberra Railway Station, ,-35.32007,149.14908,,,0,,,,
2473,2473,Lambrigg St opp Prescott St, ,-35.37786,149.10394,,,0,,,,
2472,2472,Lambrigg St opp Farrer PS, ,-35.37915,149.10724,,,0,,,,
1140,1140,Gilmore PS Heagney Cr, ,-35.41909,149.13599,,,0,,,,
2471,2471,Farrer PS Lambrigg St, ,-35.37899,149.10715,,,0,,,,
2470,2470,Dookie St after Longerenong St, ,-35.37673,149.10912,,,0,,,,
3318,3318,Canberra Railway Stn Burke Cr, ,-35.31952,149.14864,,,0,,,,
1139,1139,Heagney Cr opp Gilmore PS, ,-35.41923,149.13609,,,0,,,,
1138,1138,Heagney Cr after 2nd Emily Bulcock Cr, ,-35.42093,149.13602,,,0,,,,
2469,2469,Dookie St after Hawkesbury Cr, ,-35.37674,149.10922,,,0,,,,
2468,2468,Julia Flynn Av after Alexander Mackie Cct, ,-35.37563,149.11452,,,0,,,,
1137,1137,Heagney Cr after 1st Henry Melville Cr, ,-35.42138,149.13599,,,0,,,,
1136,1136,Heagney Cr after Enid Lorimer Cct, ,-35.42302,149.13454,,,0,,,,
2467,2467,Julia Flynn Av after 2nd Rowntree Cr, ,-35.37563,149.11469,,,0,,,,
2466,2466,Julia Flynn Av opp Rooney Pl, ,-35.37334,149.11589,,,0,,,,
1135,1135,Heagney Cr before 1st Couchman Cr, ,-35.42305,149.13492,,,0,,,,
3313,3313,Carnegie Cr after Captain Cook Cr SSO, ,-35.33469,149.14359,,,0,,,,
1134,1134,Heagney Cr before Enid Lorimer Cct, ,-35.42469,149.13303,,,0,,,,
2465,2465,Julia Flynn Av after Huffer Cl, ,-35.37326,149.11603,,,0,,,,
2464,2464,Julia Flynn Av before 2nd Walton St, ,-35.3719,149.11386,,,0,,,,
1133,1133,Heagney Cr before 2nd Couchman Cr, ,-35.42459,149.13321,,,0,,,,
4642,4642,Lyttleton Cr after Wybalena Gr, ,-35.26141,149.06902,,,0,,,,
4643,4643,Lyttleton Cr before 2nd Cambridge St, ,-35.26153,149.06809,,,0,,,,
4644,4644,Lyttleton Cr after Bindubi St, ,-35.2608,149.0728,,,0,,,,
4645,4645,Lyttleton Cr before Bindubi St, ,-35.26068,149.07256,,,0,,,,
4646,4646,Bandjalong Cr after 2nd Barada Cr, ,-35.26063,149.07489,,,0,,,,
4647,4647,Bandjalong Cr after Bindubi St, ,-35.26051,149.07494,,,0,,,,
4648,4648,Bandjalong Cr after Barada Cr, ,-35.25832,149.07564,,,0,,,,
3319,3319,Fred Daly Av after John Gorton Dr, ,-35.31891,149.03816,,,0,,,,
4649,4649,Bandjalong Cr after Amangu St, ,-35.25842,149.07553,,,0,,,,
4660,4660,Limestone Av opp Campbell HS, ,-35.27782,149.14447,,,0,,,,
4661,4661,Campbell HS Limestone Av, ,-35.27776,149.14481,,,0,,,,
4662,4662,Limestone Av opp War Memorial, ,-35.28027,149.14586,,,0,,,,
4663,4663,War Memorial Limestone Av, ,-35.27992,149.14607,,,0,,,,
5994,5994,Galmarra St after Paul Coe Cr, ,-35.17866,149.12105,,,0,,,,
3332,3332,Fred Daly Av before Buttfield St, ,-35.31377,149.04285,,,0,,,,
2485,2485,Ainsworth St after Kitchener St, ,-35.34602,149.09677,,,0,,,,
1154,1154,Bugden Av before Coyne St, ,-35.40676,149.12047,,,0,,,,
3331,3331,Fred Daly Av after Yorston St, ,-35.31341,149.04256,,,0,,,,
1153,1153,Bugden Av before 2nd Larcombe Cr, ,-35.40696,149.12044,,,0,,,,
2484,2484,Ainsworth St after Chaseling St, ,-35.34793,149.09503,,,0,,,,
1152,1152,Coyne St opp 19, ,-35.40923,149.12273,,,0,,,,
2483,2483,Ainsworth St Before Chaseling St, ,-35.34785,149.09489,,,0,,,,
1151,1151,19 Coyne St, ,-35.40917,149.12311,,,0,,,,
2482,2482,Ainsworth St before Butters Dr, ,-35.35395,149.09691,,,0,,,,
1150,1150,Coyne St opp Carson St, ,-35.40916,149.12778,,,0,,,,
2481,2481,Ainsworth St before Power St, ,-35.35342,149.09558,,,0,,,,
2480,2480,Ainsworth St after Mawson Dr, ,-35.36168,149.09863,,,0,,,,
3329,3329,Fred Daly Av before John Gorton Dr, ,-35.31929,149.03807,,,0,,,,
1149,1149,Coyne St before Carson St, ,-35.409,149.12796,,,0,,,,
1148,1148,Benham St opp Chisholm Shops, ,-35.41448,149.12923,,,0,,,,
2479,2479,Mawson Dr after Hurley St, ,-35.36319,149.09645,,,0,,,,
1147,1147,Chisholm Shops Benham St, ,-35.41442,149.12906,,,0,,,,
2478,2478,Goodwin Village Farrer Marshall St, ,-35.37282,149.10182,,,0,,,,
2477,2477,Marshall St opp Goodwin Village Farrer, ,-35.37363,149.10172,,,0,,,,
3323,3323,Albany St before Townsville St, ,-35.32707,149.18176,,,0,,,,
2476,2476,Farrer Shops Marshall St, ,-35.37515,149.10115,,,0,,,,
3322,3322,Collie St after Wollongong St, ,-35.32682,149.17973,,,0,,,,
1144,1144,Proctor St after MacLean St, ,-35.41533,149.12526,,,0,,,,
2475,2475,Marshall St opp Farrer Shops, ,-35.37498,149.10103,,,0,,,,
5501,5501,Westfield Belconnen Plt 1, ,-35.23896,149.06409,,,0,,,,
5502,5502,Westfield Belconnen Plt 2, ,-35.23861,149.06355,,,0,,,,
5503,5503,Westfield Belconnen Platform 1 Set Down Only, ,-35.23885,149.064,,,0,,,,
5504,5504,Westfield Belconnen Platform 2 Set Down Only, ,-35.23866,149.06358,,,0,,,,
4670,4670,Owen Dixon Dr 2nd after Badenoch Cr, ,-35.20444,149.0804,,,0,,,,
4671,4671,Owen Dixon Dr 2nd after Heydon Cr, ,-35.20453,149.08035,,,0,,,,
4672,4672,Owen Dixon Dr opp Heydon Cr, ,-35.20612,149.08142,,,0,,,,
5520,5520,Eastern Valley Way Bus Stn, ,-35.24015,149.073,,,0,,,,
4673,4673,Owen Dixon after Heydon Cr, ,-35.20618,149.0813,,,0,,,,
5521,5521,Eastern Valley Way after Emu Bank Dr, ,-35.2407,149.07349,,,0,,,,
4674,4674,O'Hanlon Pl opp Federation Square, ,-35.19036,149.08344,,,0,,,,
2012,2012,McCulloch St before 2nd Morgan Cr, ,-35.32161,149.08196,,,0,,,,
1165,1165,Bugden Av after 1st Appel Cr, ,-35.40171,149.11005,,,0,,,,
2496,2496,Mt Stromlo HS Badimara St, ,-35.3557,149.05444,,,0,,,,
1164,1164,Bugden Av before 2nd Maughan Cr, ,-35.40183,149.11031,,,0,,,,
2011,2011,Dunstan St before McCulloch St, ,-35.31875,149.08025,,,0,,,,
2495,2495,Kalgoorlie Cr before 2nd Bendigo St, ,-35.35775,149.05333,,,0,,,,
2010,2010,Throssell St opp Prendergast St, ,-35.31939,149.07704,,,0,,,,
1163,1163,Bugden Av opp 2nd Maughan Cr, ,-35.40132,149.11276,,,0,,,,
2494,2494,Kalgoorlie Cr after Mareeba St, ,-35.3578,149.05345,,,0,,,,
1162,1162,Bugden Av after Partridge St, ,-35.40144,149.11427,,,0,,,,
2493,2493,Bangalay Cr opp 2nd Mirbelia Cr, ,-35.34929,149.03981,,,0,,,,
1161,1161,Bugden Av after 1st Dash Cr, ,-35.40024,149.11569,,,0,,,,
2492,2492,Bangalay Cr before 1st Mirbelia Cr, ,-35.34934,149.03876,,,0,,,,
1160,1160,Bugden Av opp 309, ,-35.39862,149.12225,,,0,,,,
2009,2009,Throssell St after Jennings St, ,-35.32116,149.07492,,,0,,,,
2008,2008,Throssell St after Kennerley St, ,-35.32299,149.07481,,,0,,,,
2007,2007,Carruthers St after Jennings St, ,-35.32457,149.07558,,,0,,,,
1159,1159,Bugden Av after 2nd Mullan St, ,-35.39852,149.12212,,,0,,,,
2006,2006,Carruthers St after 2nd McCormack St, ,-35.32766,149.07559,,,0,,,,
2005,2005,Carruthers St opp Curtin PS, ,-35.33051,149.07773,,,0,,,,
1158,1158,Bugden Av opp 2nd Mullan St, ,-35.40123,149.12352,,,0,,,,
1157,1157,Bugden Av before 1st Mullan St, ,-35.40239,149.12413,,,0,,,,
2004,2004,Theodore St before 2nd James St, ,-35.3335,149.07974,,,0,,,,
2488,2488,Kitchener St before Ainsworth St, ,-35.3446,149.09724,,,0,,,,
2003,2003,Theodore St before 1st James St, ,-35.3357,149.08125,,,0,,,,
1156,1156,Bugden Av after Fihelly St, ,-35.40435,149.12196,,,0,,,,
2487,2487,Kitchener St after Ainsworth St, ,-35.34444,149.0974,,,0,,,,
2002,2002,Launceston St before Furzer St, ,-35.3408,149.08446,,,0,,,,
1155,1155,Bugden Av before 2nd Demaine Cr, ,-35.40423,149.12245,,,0,,,,
2486,2486,Ainsworth St before Kitchener St, ,-35.34569,149.09668,,,0,,,,
5511,5511,Belconnen Interchange Plt 1, ,-35.23976,149.06979,,,0,,,,
4664,4664,Campbell Park Offices Northcott Dr, ,-35.28354,149.17069,,,0,,,,
5995,5995,Galmarra St before Paul Coe Cr, ,-35.1787,149.12132,,,0,,,,
4665,4665,Fairbairn Av after Treloar Cr, ,-35.2831,149.15479,,,0,,,,
5512,5512,Belconnen Interchange Plt 2, ,-35.23978,149.06918,,,0,,,,
5996,5996,Paul Coe Cr after Nona Pl, ,-35.17788,149.12227,,,0,,,,
5513,5513,Belconnen Interchange Plt 3, ,-35.23981,149.06841,,,0,,,,
4666,4666,Owen Dixon Dr opp Copland Dr, ,-35.20092,149.07446,,,0,,,,
5997,5997,Good Shepherd PS Burdekin Av, ,-35.16607,149.12459,,,0,,,,
4667,4667,Owen Dixon Dr before Copland Dr, ,-35.20092,149.07431,,,0,,,,
5514,5514,Belconnen Interchange Plt 4, ,-35.24001,149.06799,,,0,,,,
4668,4668,Owen Dixon Dr opp Badenoch Cr, ,-35.20251,149.07636,,,0,,,,
5515,5515,Belconnen Interchange Plt 5, ,-35.24001,149.06885,,,0,,,,
5999,5999,Paul Coe Cr after Kardang St, ,-35.17827,149.12245,,,0,,,,
4669,4669,Owen Dixon Dr after Badenoch Cr, ,-35.2026,149.07629,,,0,,,,
5516,5516,Belconnen Interchange Plt 6, ,-35.24001,149.06934,,,0,,,,
5517,5517,Belconnen Interchange Arrivals, ,-35.23998,149.06905,,,0,,,,
5518,5518,Belconnen Interchange Arrivals, ,-35.23979,149.069,,,0,,,,
4680,4680,McClelland Av after Clemenger St, ,-35.18048,149.09023,,,0,,,,
4681,4681,McClelland Av before Metcalfe St, ,-35.18055,149.0903,,,0,,,,
4200,4200,Companion Cr opp 1st Vickers Cr, ,-35.21198,149.04343,,,0,,,,
4201,4201,Companion Cr before Noble Pl, ,-35.20844,149.04216,,,0,,,,
1176,1176,Erindale College McBryde Cr, ,-35.40391,149.09599,,,0,,,,
2023,2023,Throssell St after 2nd Robertson St, ,-35.32152,149.07495,,,0,,,,
3353,3353,Canberra Airport, ,-35.30761,149.18947,,,0,,,,
2022,2022,Throssell St after Prendergast St, ,-35.31948,149.07698,,,0,,,,
1174,1174,Sternberg Cr before Maltby Cct, ,-35.40199,149.10275,,,0,,,,
2021,2021,Dunstan St after McCulloch St, ,-35.31886,149.08023,,,0,,,,
3352,3352,Tobruk Rd before Gallipoli Rd, ,-35.29379,149.16432,,,0,,,,
1173,1173,Erindale Interchange Plt 2, ,-35.40405,149.09929,,,0,,,,
2020,2020,McCulloch St after Reynolds St, ,-35.32093,149.08159,,,0,,,,
3351,3351,Milne Bay Rd after General Bridges Rd, ,-35.29417,149.16229,,,0,,,,
1172,1172,Erindale Interchange Plt 1, ,-35.40365,149.09917,,,0,,,,
1171,1171,Sternberg Cr after Ashley Dr, ,-35.40194,149.10057,,,0,,,,
1170,1170,Sternberg Cr after Erindale Dr, ,-35.40226,149.10329,,,0,,,,
2019,2019,McCulloch St before Propsting St, ,-35.32329,149.0824,,,0,,,,
2018,2018,Curtin Shops Carruthers St, ,-35.32499,149.08301,,,0,,,,
2017,2017,Carruthers St after Yarra Glen, ,-35.32582,149.08524,,,0,,,,
3347,3347,Brigalow St opp Lyneham Shops, ,-35.25141,149.12447,,,0,,,,
2016,2016,Carruthers St before Groom St, ,-35.32692,149.09001,,,0,,,,
2499,2499,Devonport St opp Lyons Shops, ,-35.33883,149.07585,,,0,,,,
3346,3346,Wattle St after Dyson St, ,-35.25049,149.12276,,,0,,,,
2015,2015,Carruthers St after Allan St, ,-35.32552,149.08502,,,0,,,,
1168,1168,Bugden Av before 2nd Appel Cr, ,-35.39954,149.11583,,,0,,,,
3345,3345,Aspinall St opp Watson Terminus, ,-35.23006,149.16188,,,0,,,,
1167,1167,Bugden Av before Sternberg Cr, ,-35.40269,149.10756,,,0,,,,
2014,2014,Carruthers St opp Curtin Shops, ,-35.32461,149.08278,,,0,,,,
2013,2013,McCulloch St after 2nd Morgan Cr, ,-35.32319,149.08258,,,0,,,,
2497,2497,Badimara St opp Mt Stromlo HS, ,-35.35571,149.05425,,,0,,,,
1166,1166,Bugden Av after Sternberg Cr, ,-35.40265,149.10748,,,0,,,,
4675,4675,Federation Square O'Hanlon Pl, ,-35.19091,149.0842,,,0,,,,
5522,5522,Eastern Valley Way after Hennessy St, ,-35.24576,149.07486,,,0,,,,
4676,4676,McClelland Av opp Moriarty St, ,-35.18456,149.0842,,,0,,,,
5523,5523,Eastern Valley Way before Crisp Cct, ,-35.24561,149.07527,,,0,,,,
4677,4677,McClelland Av before Moriarty St, ,-35.18447,149.08432,,,0,,,,
4678,4678,McClelland Av after Donnan St, ,-35.18104,149.08731,,,0,,,,
4679,4679,McClelland Av before Fitzsimmons St, ,-35.18114,149.0874,,,0,,,,
4694,4694,Wanganeen Av after Jabanungga Av, ,-35.17223,149.10927,,,0,,,,
4210,4210,Lhotsky St before Cartwright St, ,-35.20127,149.0273,,,0,,,,
4695,4695,Wanganeen Av before Arabanoo Cr, ,-35.17223,149.10939,,,0,,,,
4211,4211,Lhotsky St before Napthali Cl, ,-35.19913,149.03076,,,0,,,,
4696,4696,Ngunnawal PS Wanganeen Av, ,-35.1696,149.11125,,,0,,,,
4212,4212,Lhotsky St at Donnison Pl, ,-35.19931,149.03061,,,0,,,,
1187,1187,Clare Dennis Av before Preddey Way, ,-35.44709,149.08385,,,0,,,,
2034,2034,Beasley St opp Torrens PS, ,-35.37225,149.0898,,,0,,,,
2033,2033,Melrose Dr before Launceston St, ,-35.33921,149.08312,,,0,,,,
1186,1186,Clare Dennis Av before 2nd Fred Ln Cr, ,-35.44677,149.08608,,,0,,,,
2032,2032,Melrose Dr opp Phillip Pool, ,-35.33908,149.08281,,,0,,,,
1185,1185,Clare Dennis Av before 1st Fred Ln Cr, ,-35.44516,149.0878,,,0,,,,
1184,1184,Clare Dennis Av before Armbruster St, ,-35.44304,149.08597,,,0,,,,
2030,2030,Marrawah St after Theodore St, ,-35.3386,149.08203,,,0,,,,
1183,1183,Woodcock Dr opp Clare Dennis Av, ,-35.44169,149.08615,,,0,,,,
1182,1182,Woodcock Dr before Clare Dennis Av, ,-35.44186,149.08618,,,0,,,,
3360,3360,Canberra Railway Stn Wentworth Av, ,-35.3192,149.14737,,,0,,,,
1181,1181,McBryde Cr opp MacKillop College, ,-35.40627,149.09056,,,0,,,,
1180,1180,MacKillop College McBryde Cr, ,-35.40614,149.09058,,,0,,,,
2029,2029,Theodore St before 2nd Holman St, ,-35.33556,149.08125,,,0,,,,
2028,2028,Theodore St opp 1st James St, ,-35.33369,149.07988,,,0,,,,
2027,2027,Carruthers St before Curtin PS, ,-35.33029,149.07768,,,0,,,,
1179,1179,Amsinck St before McBryde Cr, ,-35.4056,149.09329,,,0,,,,
2026,2026,Carruthers St after Nelson Pl, ,-35.32779,149.07579,,,0,,,,
3356,3356,Legislative Assembly London Cct, ,-35.28132,149.13147,,,0,,,,
1178,1178,Amsinck St after McBryde Cr, ,-35.40556,149.09355,,,0,,,,
2025,2025,Carruthers St opp Jennings St, ,-35.32471,149.07565,,,0,,,,
1177,1177,McBryde Cr opp Erindale College, ,-35.40422,149.09615,,,0,,,,
2024,2024,Throssell St after Storey St, ,-35.32304,149.07495,,,0,,,,
4686,4686,Holy Spirit PS Plt 2, ,-35.18031,149.10207,,,0,,,,
4202,4202,Companion Cr after 2nd Nulsen Cct, ,-35.20828,149.04215,,,0,,,,
4687,4687,Kelleway Av opp Holy Spirit PS, ,-35.18063,149.10175,,,0,,,,
4203,4203,Companion Cr at Homann Pl, ,-35.20881,149.03932,,,0,,,,
4204,4204,Companion Cr at Dobinson Pl, ,-35.2093,149.03845,,,0,,,,
4205,4205,Lhotsky St opp Charnwood Shops, ,-35.20587,149.03305,,,0,,,,
4206,4206,Charnwood Shops Lhotsky St, ,-35.20549,149.0325,,,0,,,,
4207,4207,Lhotsky St after Florey Dr, ,-35.20302,149.02765,,,0,,,,
4208,4208,Lhotsky St after Cartwright St, ,-35.20317,149.02788,,,0,,,,
4209,4209,Lhotsky St before Sport Way, ,-35.20102,149.02716,,,0,,,,
1190,1190,Lewis Luxton Av opp 2nd Cerutty Cr, ,-35.4529,149.08797,,,0,,,,
4220,4220,Shakespeare Cr after Pettifer Pl, ,-35.19322,149.0331,,,0,,,,
4221,4221,Fraser West Terminus Shakespeare Cr, ,-35.19058,149.03604,,,0,,,,
4222,4222,Shakespeare Cr opp 1st Dowthaite St, ,-35.19094,149.03684,,,0,,,,
4223,4223,Shakespeare Cr before 2nd Dunbar St, ,-35.18908,149.03873,,,0,,,,
2045,2045,Southlands Shops Heard St, ,-35.36547,149.09532,,,0,,,,
1198,1198,Bugden Av opp 1st Chataway Cr, ,-35.39804,149.11826,,,0,,,,
1197,1197,Bugden Av after 2nd Chataway Cr, ,-35.39864,149.11757,,,0,,,,
2044,2044,Heard St opp Southlands Shops, ,-35.36558,149.09543,,,0,,,,
1196,1196,39 Callaway Cr, ,-35.46004,149.08174,,,0,,,,
2043,2043,Heard St before Wilkins St, ,-35.36803,149.09758,,,0,,,,
1195,1195,Callaway Cr at 1st Myles Connell Cr, ,-35.45907,149.08005,,,0,,,,
2042,2042,Heard St after Wilkins St, ,-35.36816,149.09769,,,0,,,,
1194,1194,Jim Pike Av before Clem Hill St, ,-35.46202,149.07991,,,0,,,,
2041,2041,Wilkins St after Beasley St, ,-35.3705,149.09943,,,0,,,,
2040,2040,Wilkins St after Hoadley St, ,-35.37061,149.09963,,,0,,,,
1193,1193,Knoke Av after Jim Pike Av, ,-35.46228,149.08321,,,0,,,,
1192,1192,Knoke Av before Oxenham Cct, ,-35.46058,149.08566,,,0,,,,
1191,1191,Knoke Av opp Gordon PS, ,-35.45812,149.08612,,,0,,,,
2039,2039,Beasley St before Wilkins St, ,-35.37172,149.09813,,,0,,,,
3369,3369,Cowper St before Majura Av, ,-35.25682,149.13968,,,0,,,,
2038,2038,Badimara St after Yambina St, ,-35.35851,149.06012,,,0,,,,
2037,2037,Beasley St after Athllon Dr, ,-35.37186,149.09549,,,0,,,,
1189,1189,Lewis Luxton Av opp Blinkhorn Pl, ,-35.45044,149.0891,,,0,,,,
2036,2036,Beasley St after Lambrigg St, ,-35.37195,149.09547,,,0,,,,
1188,1188,Lewis Luxton Av after Preddey Way, ,-35.4484,149.08612,,,0,,,,
2035,2035,Torrens PS Beasley St, ,-35.37188,149.09067,,,0,,,,
4697,4697,Wanganeen Av opp Ngunnawal PS, ,-35.16972,149.11124,,,0,,,,
4213,4213,Lhotsky St before 2nd Townson Cr, ,-35.19702,149.03386,,,0,,,,
4214,4214,Lhotsky St before 2nd Bettington Cct, ,-35.19726,149.03363,,,0,,,,
4698,4698,Unaipon Av after Ngunnawal PS, ,-35.1678,149.11212,,,0,,,,
4699,4699,Unaipon Av opp Ngunnawal PS, ,-35.16803,149.11221,,,0,,,,
4215,4215,Lhotsky St after 2nd Townson Cr, ,-35.19578,149.03525,,,0,,,,
4216,4216,Lhotsky St after Sly Pl, ,-35.19603,149.03525,,,0,,,,
4217,4217,Kerrigan St after Winder Pl, ,-35.19383,149.03468,,,0,,,,
4218,4218,Kerrigan St opp Winder Pl, ,-35.19373,149.03503,,,0,,,,
4219,4219,Shakespeare Cr after Kerrigan St, ,-35.19319,149.03297,,,0,,,,
4230,4230,Kerrigan St after Crowley Ct, ,-35.19377,149.04011,,,0,,,,
4231,4231,Tillyard Dr after Kerrigan St, ,-35.19318,149.04227,,,0,,,,
4232,4232,Tillyard Dr after 2nd Daley Cr, ,-35.19322,149.0424,,,0,,,,
4233,4233,Daley Cr opp Fraser Shops, ,-35.19268,149.04416,,,0,,,,
4234,4234,Fraser Shops Daley Cr, ,-35.19271,149.04401,,,0,,,,
3387,3387,Fawkner St after Girrahween St, ,-35.27147,149.13582,,,0,,,,
2056,2056,Macfarland Cr after Wilsmore Cr, ,-35.35812,149.0755,,,0,,,,
2055,2055,Macfarland Cr before 2nd Threlfall St, ,-35.35823,149.07567,,,0,,,,
3386,3386,Fawkner St after Elouera St, ,-35.27262,149.13556,,,0,,,,
3385,3385,Fawkner St before Elouera St, ,-35.27318,149.13553,,,0,,,,
2054,2054,Hodgson Cr after Brinsmead St, ,-35.36621,149.08232,,,0,,,,
2053,2053,Hodgson Cr at Murphy Cr, ,-35.36627,149.08254,,,0,,,,
3384,3384,Watson Terminus Aspinall St, ,-35.2302,149.16193,,,0,,,,
3383,3383,Ellenborough St opp Cossington Smith St, ,-35.23766,149.12552,,,0,,,,
2052,2052,Nemarang Cr after Larakia St, ,-35.35186,149.0639,,,0,,,,
3382,3382,Ellenborough St before Cossington Smith St, ,-35.23752,149.12529,,,0,,,,
2050,2050,Pearce Shops Macfarland Cr, ,-35.36299,149.08136,,,0,,,,
3379,3379,Brigalow St after Lyneham Shops, ,-35.25217,149.12347,,,0,,,,
3378,3378,Brigalow St before Lyneham Shops, ,-35.25217,149.12332,,,0,,,,
3377,3377,Wattle St before Miller St, ,-35.2497,149.12143,,,0,,,,
1199,1199,Knoke Av after Clem Hill St, ,-35.46479,149.08418,,,0,,,,
4224,4224,Shakespeare Cr opp 1st Dunbar St, ,-35.18897,149.03885,,,0,,,,
4225,4225,Shakespeare Cr opp 41, ,-35.18951,149.04167,,,0,,,,
4226,4226,41 Shakespeare Cr, ,-35.18953,149.04155,,,0,,,,
4227,4227,Shakespeare Cr opp 25, ,-35.19156,149.04053,,,0,,,,
4228,4228,Shakespeare Cr after Filshie Cl, ,-35.19159,149.04036,,,0,,,,
4229,4229,Kerrigan St after Shakespeare Cr, ,-35.19369,149.04027,,,0,,,,
3390,3390,Doonkuna St before Donaldson St, ,-35.27579,149.13721,,,0,,,,
4240,4240,Bingley Cr opp Crease Pl, ,-35.19054,149.05306,,,0,,,,
4241,4241,Bingley Cr at 1st Brophy St, ,-35.19105,149.05571,,,0,,,,
4242,4242,Bingley Cr at Nish Pl, ,-35.19099,149.05547,,,0,,,,
2067,2067,Launceston St before 2nd Tarraleah Cr, ,-35.34341,149.07452,,,0,,,,
2066,2066,Launceston St after Dennes Pl, ,-35.34673,149.07404,,,0,,,,
2065,2065,Launceston St opp Dennes Pl, ,-35.34668,149.07413,,,0,,,,
2064,2064,Eggleston Cr after Plunkett St, ,-35.34967,149.07619,,,0,,,,
2063,2063,Eggleston Cr after McDonald St, ,-35.34959,149.07614,,,0,,,,
2062,2062,Eggleston Cr opp Chifley Shops, ,-35.35215,149.0753,,,0,,,,
2061,2061,Chifley Shops Eggleston Cr, ,-35.35253,149.07553,,,0,,,,
2060,2060,Macfarland Cr opp Waldock St, ,-35.35574,149.07533,,,0,,,,
3391,3391,Knox St opp Majura Preschool, ,-35.23702,149.15239,,,0,,,,
2059,2059,Macfarland Cr after Waldock St, ,-35.35562,149.07524,,,0,,,,
3389,3389,Doonkuna St after Donaldson St, ,-35.2758,149.13734,,,0,,,,
2058,2058,Macfarland Cr before Sheehan St, ,-35.3615,149.07805,,,0,,,,
2057,2057,Macfarland Cr after Collings St, ,-35.36131,149.07799,,,0,,,,
3388,3388,Fawkner St before Girrahween St, ,-35.27152,149.1357,,,0,,,,
4235,4235,Daley Cr opp 1st Bingley Cr, ,-35.19347,149.0468,,,0,,,,
4236,4236,Daley Cr after 2nd Bingley Cr, ,-35.19367,149.04652,,,0,,,,
4237,4237,Bingley Cr after 2nd Rochford St, ,-35.19048,149.05041,,,0,,,,
4238,4238,Bingley Cr after 2nd Foskett St, ,-35.19051,149.05017,,,0,,,,
4239,4239,Bingley Cr at Vercoe Pl, ,-35.19044,149.05272,,,0,,,,
2070,2070,Launceston St opp Lyons Shops, ,-35.34041,149.07648,,,0,,,,
4250,4250,Kingsford Smith Dr after Le Gallienne St, ,-35.20301,149.05753,,,0,,,,
4251,4251,Kingsford Smith Dr before Le Gallienne St, ,-35.20292,149.05614,,,0,,,,
4252,4252,Kingsford Smith Dr after 1st Bainton Cr, ,-35.20275,149.05515,,,0,,,,
4253,4253,Kingsford Smith Dr before Carandini St, ,-35.20326,149.05226,,,0,,,,
5100,5100,Canberra Hospital Car Park Bateson Rd, ,-35.34848,149.10065,,,0,,,,
5101,5101,Kerrigan St after Polilight St, ,-35.19372,149.03133,,,0,,,,
4254,4254,Kingsford Smith Dr after Spalding St, ,-35.20348,149.05148,,,0,,,,
4255,4255,Kingsford Smith Dr after Alfred Hill Dr, ,-35.20662,149.04895,,,0,,,,
5102,5102,Kerrigan St before Dunnett St, ,-35.19376,149.03124,,,0,,,,
5103,5103,Catalina Dr before Lancaster Pl, ,-35.29903,149.1881,,,0,,,,
4256,4256,Kingsford Smith Dr before Pattinson Cr, ,-35.20695,149.04799,,,0,,,,
2077,2077,Beasley St before Gepp Pl, ,-35.36848,149.08447,,,0,,,,
2076,2076,Beasley St before Wyatt St, ,-35.37074,149.08536,,,0,,,,
2075,2075,Beasley St before Hawker St, ,-35.37081,149.08524,,,0,,,,
2074,2074,Torrens Shops Beasley St, ,-35.37309,149.08662,,,0,,,,
2073,2073,Beasley St opp Gepp Pl, ,-35.36864,149.0847,,,0,,,,
2072,2072,Launceston St after Burnie St, ,-35.3396,149.07983,,,0,,,,
2071,2071,Launceston St after Glenorchy St, ,-35.33954,149.07997,,,0,,,,
2069,2069,Lyons Shops Launceston St, ,-35.33971,149.07698,,,0,,,,
2068,2068,Launceston St after Port Arthur St, ,-35.34286,149.07468,,,0,,,,
4249,4249,Kingsford Smith Dr after Alpen St, ,-35.20349,149.05895,,,0,,,,
4260,4260,Verbrugghen St after Conley Dr, ,-35.21132,149.05005,,,0,,,,
4261,4261,Verbrugghen St opp Melba HS, ,-35.2132,149.05115,,,0,,,,
4262,4262,Melba HS Verbrugghen St, ,-35.21318,149.05096,,,0,,,,
5110,5110,Dakota Dr before Beaufighter St, ,-35.30013,149.18903,,,0,,,,
4263,4263,67 Verbrugghen St, ,-35.21349,149.05437,,,0,,,,
4264,4264,Verbrugghen St before Brownlee Pl, ,-35.21358,149.0542,,,0,,,,
5112,5112,Pro Hart Av after Sally Ross Way, ,-35.22318,148.99336,,,0,,,,
4265,4265,Copland College Verbrugghen St, ,-35.21297,149.0587,,,0,,,,
4266,4266,Verbrugghen St opp Copland College, ,-35.21285,149.05833,,,0,,,,
5104,5104,Orana Steiner School Hickey Ct SSO, ,-35.32761,149.05951,,,0,,,,
4257,4257,Melba Shops Kingsford Smith Dr, ,-35.2087,149.04765,,,0,,,,
4258,4258,Kingsford Smith Dr opp Melba Shops, ,-35.20819,149.04738,,,0,,,,
5105,5105,Mt Stromlo HS School Grounds SSO, ,-35.35502,149.05435,,,0,,,,
5106,5106,Daramalan College Morphett St SSO, ,-35.25391,149.13834,,,0,,,,
4259,4259,Verbrugghen St after 1st Grainger Cct, ,-35.21151,149.05025,,,0,,,,
5107,5107,Merici College Wise St SSO, ,-35.26749,149.13643,,,0,,,,
4271,4271,Coulter Dr after Lachlan St, ,-35.24932,149.05574,,,0,,,,
2092,2092,Launceston St opp Canberra College, ,-35.34031,149.09033,,,0,,,,
2091,2091,Canberra College Launceston St, ,-35.34025,149.09006,,,0,,,,
4272,4272,Coulter Dr opp Lachlan St, ,-35.24929,149.05562,,,0,,,,
5120,5120,Stockman Av before Jumbuck Cr, ,-35.22728,149.09126,,,0,,,,
4273,4273,Coulter Dr opp Schumack St, ,-35.25264,149.05473,,,0,,,,
2090,2090,Badimara St after 1st Kalgoorlie Cr, ,-35.35863,149.06018,,,0,,,,
4274,4274,Coulter Dr after Schumack St, ,-35.25274,149.0546,,,0,,,,
4275,4275,Coulter Dr opp Shumack St, ,-35.25508,149.05412,,,0,,,,
5122,5122,MacKillop College School Grounds SSO, ,-35.42543,149.09317,,,0,,,,
4276,4276,Coulter Dr before Shumack St, ,-35.25525,149.05397,,,0,,,,
5123,5123,Covenant College School Grounds SSO, ,-35.43952,149.09024,,,0,,,,
2099,2099,Culgoa Cct after 1st Jindalee Cr, ,-35.35438,149.105,,,0,,,,
2098,2098,Culgoa Cct before Bulwarra Cl, ,-35.35234,149.10455,,,0,,,,
2097,2097,Culgoa Cct after 2nd Jindalee Cr, ,-35.3522,149.10439,,,0,,,,
2096,2096,Tyagarah St before Culgoa Cct, ,-35.35012,149.10645,,,0,,,,
2095,2095,Yamba Dr opp Canberra Hospital, ,-35.3467,149.09958,,,0,,,,
2094,2094,Yamba Dr after Kitchener St, ,-35.34246,149.09639,,,0,,,,
2093,2093,Yamba Dr opp St Peter & St Pauls PS, ,-35.34055,149.09352,,,0,,,,
4270,4270,Coulter Dr before Belconnen Way, ,-35.24565,149.05617,,,0,,,,
4269,4269,Coulter Dr before Lachlan St, ,-35.24672,149.05624,,,0,,,,
5118,5118,Stockman Av before Bulletin St, ,-35.22762,149.08691,,,0,,,,
5131,5131,Fraser PS School Grounds SSO, ,-35.19199,149.04344,,,0,,,,
4288,4288,Belconnen HS Murranji St, ,-35.24716,149.04041,,,0,,,,
5127,5127,Canberra Av after Ipswich St, ,-35.33089,149.16258,,,0,,,,
5128,5128,Alfred Deakin High School Grounds SSO, ,-35.3241,149.09354,,,0,,,,
4293,4293,Murranji St opp Delamere St, ,-35.24349,149.03206,,,0,,,,
4294,4294,Murranji St after Delamere St, ,-35.24377,149.032,,,0,,,,
4295,4295,Belconnen Way after Mackinolty St, ,-35.24078,149.03468,,,0,,,,
4296,4296,Belconnen Way before Murranji St, ,-35.24107,149.03577,,,0,,,,
4297,4297,Kingsford Smith Dr after Findlay St, ,-35.23605,149.03287,,,0,,,,
4298,4298,Kingsford Smith Dr opp Findlay St, ,-35.23675,149.03261,,,0,,,,
4291,4291,Murranji St opp Hawker College, ,-35.24644,149.03227,,,0,,,,
4292,4292,Hawker College Murranji St, ,-35.24634,149.03232,,,0,,,,
5137,5137,Curran Dr after McClelland Av, ,-35.18226,149.09189,,,0,,,,
5138,5138,Curran Dr before McClelland Av, ,-35.18224,149.0918,,,0,,,,
13,13,Tuggeranong Interchange Arrivals, ,-35.41496,149.06609,,,0,,,,
6001,6001,Katherine Av opp Clarendon St, ,-35.16991,149.13443,,,0,,,,
9992,9992,Canberra Junior Grammar School Alexander St SSO, ,-35.33273,149.12486,,,0,,,,
6000,6000,Amaroo School Burdekin Av, ,-35.16561,149.12735,,,0,,,,
6005,6005,Jane Sutherland St after Tom Roberts Av, ,-35.46703,149.10596,,,0,,,,
6014,6014,Templestowe Av after Jane Sutherland St, ,-35.46577,149.11108,,,0,,,,
6013,6013,Templestowe Av before Morrison St, ,-35.46592,149.11089,,,0,,,,
6016,6016,Templestowe Av before Humphrey St, ,-35.46652,149.10844,,,0,,,,
5168,5168,CIT Bruce Battye St, ,-35.24652,149.09663,,,0,,,,
6015,6015,Templestowe Av after 2nd Montefiore Cr, ,-35.46645,149.10854,,,0,,,,
5169,5169,John Paul College Gungahlin Dr, ,-35.17609,149.10117,,,0,,,,
6007,6007,Well Station Dr after Rhodanthe Way, ,-35.20974,149.15527,,,0,,,,
6006,6006,Well Station Dr after 1st Albatross Cr, ,-35.20977,149.15742,,,0,,,,
6009,6009,Well Station Dr opp Albatross Cr, ,-35.20554,149.16347,,,0,,,,
6008,6008,Well Station Dr after 2nd Albatross Cr, ,-35.20528,149.16345,,,0,,,,
5173,5173,Wanganeen Av after Mirrabei Dr, ,-35.16834,149.11452,,,0,,,,
5174,5174,Kingsford Smith Dr before Ginninderra Dr, ,-35.21478,149.0457,,,0,,,,
5175,5175,Temperley St before Wendy Ey Pl, ,-35.19214,149.09843,,,0,,,,
6025,6025,Gundaroo Dr before Pallin St, ,-35.18101,149.14044,,,0,,,,
6024,6024,Gundaroo Dr after Hollingsworth St, ,-35.18084,149.14059,,,0,,,,
6027,6027,Gundaroo Dr after Pallin St, ,-35.18079,149.13847,,,0,,,,
6026,6026,Gundaroo Dr before Hollingsworth St, ,-35.18064,149.13853,,,0,,,,
5170,5170,Gungahlin Dr opp John Paul College, ,-35.17598,149.10138,,,0,,,,
5171,5171,Braybrooke St before Ginninderra Dr, ,-35.24018,149.10303,,,0,,,,
5172,5172,Braybrooke St after Ginninderra Dr, ,-35.24042,149.10316,,,0,,,,
6018,6018,Templestowe Av before Tom Roberts Av, ,-35.46549,149.10658,,,0,,,,
5184,5184,Gundaroo Dr before Ginninderra Dr, ,-35.22435,149.0773,,,0,,,,
6032,6032,Katherine Av before Cooloola St, ,-35.16954,149.13181,,,0,,,,
6031,6031,Gundaroo Dr after Ginn St, ,-35.18479,149.12271,,,0,,,,
5185,5185,Gundaroo Dr opp Baldwin Dr, ,-35.21708,149.08276,,,0,,,,
5186,5186,Gundaroo Dr after Baldwin Dr, ,-35.21841,149.08154,,,0,,,,
6034,6034,Katherine Av after 2nd Carstairs Cct, ,-35.16959,149.13785,,,0,,,,
6033,6033,Katherine Av before Clarendon St, ,-35.17017,149.1349,,,0,,,,
49,49,Tuggeranong Interchange Plt 5, ,-35.41423,149.06531,,,0,,,,
6035,6035,Katherine Av before 1st Benaroon Cct, ,-35.16981,149.13768,,,0,,,,
6038,6038,Horse Park Dr after Gundaroo Dr, ,-35.17577,149.13969,,,0,,,,
6030,6030,Gundaroo Dr before Nari St, ,-35.18358,149.12476,,,0,,,,
5182,5182,John Paul College School Grounds SSO, ,-35.17707,149.1003,,,0,,,,
5183,5183,Gundaroo Dr after Ginninderra Dr, ,-35.22406,149.07704,,,0,,,,
6029,6029,Gundaroo Dr after Gungahlin Pl, ,-35.18027,149.13545,,,0,,,,
6028,6028,Gundaroo Dr before Nellie Hamilton Av, ,-35.18015,149.13559,,,0,,,,
50,50,Tuggeranong Interchange Plt 6, ,-35.41441,149.06523,,,0,,,,
6045,6045,Kerrigan St after Lance Hill Av, ,-35.19323,149.01872,,,0,,,,
6046,6046,Kerrigan St before Lance Hill Av, ,-35.19312,149.01883,,,0,,,,
6049,6049,Katherine Av before Timboram St, ,-35.16927,149.12944,,,0,,,,
6048,6048,Katherine Av before Shoalhaven Av, ,-35.16785,149.12787,,,0,,,,
2919,2919,Ipswich St before Canberra Av, ,-35.32909,149.1628,,,0,,,,
6039,6039,Horse Park Dr before David Walsh Av, ,-35.17459,149.1398,,,0,,,,
6054,6054,Cultivation St before Tanami St, ,-35.1986,149.15948,,,0,,,,
6053,6053,Cultivation St after Dimby St, ,-35.20068,149.15793,,,0,,,,
6056,6056,Cultivation St before Granites St, ,-35.19634,149.16029,,,0,,,,
6055,6055,Cultivation St after Tanami St, ,-35.19852,149.15942,,,0,,,,
6058,6058,Jenolan St before Cultivation St, ,-35.19555,149.15831,,,0,,,,
6057,6057,Cultivation St opp Granites St, ,-35.19645,149.1602,,,0,,,,
6059,6059,Jenolan St after Cultivation St, ,-35.19541,149.1582,,,0,,,,
6050,6050,Nullarbor Av after Adder St, ,-35.20205,149.15683,,,0,,,,
6052,6052,Cultivation St before Angora St, ,-35.2002,149.15834,,,0,,,,
6051,6051,Nullarbor Av after Katoomba St, ,-35.20197,149.15656,,,0,,,,
2928,2928,Captain Cook Cr after Jerrabomberra Av SSO, ,-35.3348,149.14566,,,0,,,,
2926,2926,National Cct opp Forrest PS, ,-35.31557,149.12654,,,0,,,,
2925,2925,Forrest PS National Cct, ,-35.3154,149.12689,,,0,,,,
6069,6069,Anthony Rolfe Av after DeBortoli St, ,-35.18639,149.15214,,,0,,,,
6061,6061,Mapleton Av after Nimbera St, ,-35.1947,149.1593,,,0,,,,
6060,6060,Mapleton Av opp Nimbera St, ,-35.19481,149.15927,,,0,,,,
1601,1601,Ashley Dr before Michaelis Ct, ,-35.40347,149.10164,,,0,,,,
1600,1600,Trinity Christian School McBryde Cr, ,-35.40753,149.08684,,,0,,,,
1609,1609,St Edmunds College McMillan Cr SSO, ,-35.32322,149.14603,,,0,,,,
1608,1608,St Clares College McMillan Cr SSO, ,-35.32322,149.14618,,,0,,,,
1607,1607,Caroline Chisholm Senior School Hambidge Cr SSO, ,-35.41842,149.12169,,,0,,,,
1606,1606,Calwell HS Casey Cr, ,-35.44124,149.11688,,,0,,,,
6076,6076,Grampians St opp Clear St, ,-35.19827,149.11421,,,0,,,,
6075,6075,Grampians St before Clear St, ,-35.19796,149.11455,,,0,,,,
6078,6078,Hoskins St after Oodgeroo Av, ,-35.20261,149.13994,,,0,,,,
6079,6079,Hoskins St before Oodgeroo Av, ,-35.20245,149.13985,,,0,,,,
6070,6070,Nullarbor Av opp Phantom St, ,-35.20087,149.16144,,,0,,,,
6072,6072,North Ainslie PS School Grounds SSO, ,-35.25468,149.14827,,,0,,,,
6071,6071,Nullarbor Av after Cape York St, ,-35.20133,149.16306,,,0,,,,
6074,6074,Mother Teresa School Mapleton Av, ,-35.19447,149.15448,,,0,,,,
2944,2944,Canberra Av before Faulding St, ,-35.33501,149.16998,,,0,,,,
1613,1613,Marist College School Grounds SSO, ,-35.36009,149.08824,,,0,,,,
2943,2943,Canberra Av after Geelong St, ,-35.33347,149.16762,,,0,,,,
2941,2941,Newcastle St after Gladstone St, ,-35.32499,149.17232,,,0,,,,
2948,2948,Canberra Outlet Centre Iron Knob St, ,-35.33629,149.17958,,,0,,,,
1615,1615,Holy Family PS Castleton Cr, ,-35.41095,149.11571,,,0,,,,
1614,1614,Melrose HS Marr St SSO, ,-35.36326,149.08826,,,0,,,,
6089,6089,Amy Ackman St after Francis Forde St, ,-35.17105,149.14179,,,0,,,,
6088,6088,Amy Ackman St before Francis Forde St, ,-35.17108,149.14191,,,0,,,,
6081,6081,Hoskins St before Daniels St, ,-35.20482,149.13954,,,0,,,,
6080,6080,Hoskins St after Well Station Dr, ,-35.20558,149.1393,,,0,,,,
1620,1620,St Anthony's PS School Grounds SSO, ,-35.39425,149.08048,,,0,,,,
6098,6098,Robin Boyd Cr after Cullis Hill Tce, ,-35.15089,149.09825,,,0,,,,
6097,6097,137 Robin Boyd Cr, ,-35.14651,149.09854,,,0,,,,
6099,6099,Robin Boyd Crescent after Ken Herde Cr, ,-35.15117,149.09866,,,0,,,,
6090,6090,Amy Ackman St before Quinane Av, ,-35.16628,149.14508,,,0,,,,
6092,6092,Well Station Dr after Flemington Rd, ,-35.20868,149.14841,,,0,,,,
6091,6091,Amy Ackman St after Helen Leonard Cr, ,-35.16679,149.14439,,,0,,,,
6094,6094,Robin Boyd Cr before Grenfell Av, ,-35.14742,149.10431,,,0,,,,
6093,6093,Well Station Dr before Flemington Rd, ,-35.20885,149.14876,,,0,,,,
6096,6096,Robin Boyd Cr opp 137, ,-35.14671,149.09856,,,0,,,,
6095,6095,Robin Boyd Cr before Devenish St, ,-35.14729,149.10451,,,0,,,,
1631,1631,Laurens St after McBryde Cr, ,-35.40687,149.08432,,,0,,,,
0300,0300,Ainslie PS Donaldson St, ,-35.27362,149.14082,,,0,,,,
1630,1630,Laurens St before McBryde Cr, ,-35.40673,149.08429,,,0,,,,
1639,1639,Forsythe St after Pockett Av, ,-35.47453,149.09492,,,0,,,,
1638,1638,Forsythe St before Pockett Av, ,-35.47449,149.09471,,,0,,,,
1637,1637,Weston Creek Terminus Hindmarsh Dr, ,-35.34392,149.02766,,,0,,,,
1642,1642,Barraclough Cr opp Goodwin Village, ,-35.41633,149.09625,,,0,,,,
1641,1641,Lanyon Marketplace Terminus North, ,-35.45616,149.09229,,,0,,,,
1640,1640,Mt Vernon Dr after Kambah Pool Rd SSO, ,-35.38897,149.03252,,,0,,,,
1649,1649,Lawrence Wackett Cr before Tharwa Dr, ,-35.44265,149.12264,,,0,,,,
1660,1660,Barr Smith Av after 1st Derrington Cr, ,-35.43223,149.07665,,,0,,,,
2504,2504,Heysen St before Devonport St, ,-35.33304,149.06929,,,0,,,,
2503,2503,Devonport St after 2nd Derwent St, ,-35.33443,149.07202,,,0,,,,
2502,2502,Devonport St opp 1st Derwent St, ,-35.33427,149.07202,,,0,,,,
2501,2501,41 Devonport St, ,-35.33646,149.07451,,,0,,,,
2500,2500,Devonport St after 1st Scottsdale St, ,-35.33649,149.07468,,,0,,,,
1651,1651,Goodwin Village Barraclough Cr, ,-35.41628,149.0959,,,0,,,,
1650,1650,Lawrence Wackett Cr after Scantlebury Cr, ,-35.44265,149.12279,,,0,,,,
2509,2509,Burrinjuck Cr after 2nd Tantangara St, ,-35.33954,149.03635,,,0,,,,
2508,2508,Warragamba Av opp Jindabyne St, ,-35.33047,149.03484,,,0,,,,
2507,2507,Warragamba Av before Jindabyne St, ,-35.33057,149.03491,,,0,,,,
2506,2506,Mulley St after Dixon Dr, ,-35.33071,149.04848,,,0,,,,
2505,2505,Heysen St after Devonport St, ,-35.33324,149.06921,,,0,,,,
1671,1671,Clive Steele Av opp Falconer St, ,-35.42136,149.08859,,,0,,,,
1670,1670,189 Clive Steele Av, ,-35.41997,149.08586,,,0,,,,
1668,1668,Duggan St before Pennington Cr, ,-35.43908,149.09821,,,0,,,,
2514,2514,Mulley St before Dixon Dr, ,-35.3307,149.04839,,,0,,,,
1667,1667,Duggan St before Downard St, ,-35.43899,149.09828,,,0,,,,
2513,2513,Mulley St opp Canberra Montessori School, ,-35.33265,149.04892,,,0,,,,
1666,1666,Gordon PS Knoke Av, ,-35.45817,149.08624,,,0,,,,
2510,2510,Burrinjuck Cr after Kallara Cl, ,-35.33958,149.03676,,,0,,,,
1661,1661,Barr Smith Av before 2nd Derrington Cr, ,-35.43081,149.07481,,,0,,,,
1669,1669,Clive Steele Av opp 187, ,-35.41987,149.08565,,,0,,,,
1682,1682,Paperbark St after Troughton St, ,-35.4724,149.1031,,,0,,,,
1681,1681,Paperbark St after Galbraith Cl, ,-35.4724,149.10321,,,0,,,,
1680,1680,73 Forsythe St, ,-35.47499,149.10091,,,0,,,,
1679,1679,Forsythe St after 2nd Alison Ashby Cr, ,-35.47524,149.10107,,,0,,,,
4705,4705,Len Waters St after Windradyne St, ,-35.16248,149.11171,,,0,,,,
4706,4706,Mirrabei Dr after Crackajack Way, ,-35.16367,149.11426,,,0,,,,
1678,1678,Forsythe St after 2nd Smeaton Cct, ,-35.47644,149.09981,,,0,,,,
1677,1677,Forsythe St after 2nd Olive Pink Cr, ,-35.47655,149.09979,,,0,,,,
4707,4707,Mirrabei Dr opp Crackajack Way, ,-35.1633,149.11404,,,0,,,,
4708,4708,Mirrabei Dr opp Wanganeen Av, ,-35.1661,149.11482,,,0,,,,
2523,2523,Streeton Dr opp Bangalay Cr, ,-35.35088,149.04224,,,0,,,,
1676,1676,Forsythe St after 1st Smeaton Cct, ,-35.47488,149.09715,,,0,,,,
2522,2522,Streeton Dr opp Darwinia Tce, ,-35.35241,149.04175,,,0,,,,
1675,1675,Forsythe St after Bellchambers Cr, ,-35.47514,149.09763,,,0,,,,
4709,4709,Mirrabei Dr after Wanganeen Av Northbound, ,-35.16607,149.11462,,,0,,,,
2521,2521,Namatjira Dr after Bunbury St, ,-35.34657,149.05707,,,0,,,,
2520,2520,Beasley St opp Torrens Shops, ,-35.37364,149.08711,,,0,,,,
1672,1672,Clive Steele Av after Falconer St, ,-35.42138,149.08874,,,0,,,,
4700,4700,Unaipon Av before Yumba Av, ,-35.1662,149.1118,,,0,,,,
4701,4701,Unaipon Av after Windradyne St, ,-35.16595,149.11179,,,0,,,,
4702,4702,Unaipon Av before Len Waters St, ,-35.16424,149.11148,,,0,,,,
4703,4703,Unaipon Av after Len Waters St, ,-35.16407,149.1115,,,0,,,,
4704,4704,Len Waters St before Maynard St, ,-35.16247,149.11154,,,0,,,,
2540,2540,Hughes Shops Wisdom St, ,-35.33292,149.09418,,,0,,,,
1692,1692,Templestowe Av opp 2nd Barringer St, ,-35.46223,149.10719,,,0,,,,
1691,1691,Templestowe Av after 1st Barringer St, ,-35.4625,149.10793,,,0,,,,
1690,1690,Templestowe Av opp 1st Barringer St, ,-35.46275,149.1095,,,0,,,,
4716,4716,Burdekin Av before Wanderer Ct, ,-35.17025,149.12029,,,0,,,,
2537,2537,Gilmore Cr after Hopegood Pl, ,-35.34425,149.10803,,,0,,,,
1206,1206,Pockett Av before Thomas Hart St, ,-35.46528,149.0941,,,0,,,,
1689,1689,Templestowe Av after 2nd Barringer St, ,-35.46264,149.10979,,,0,,,,
2536,2536,Gilmore Cr before Hartigan St, ,-35.34348,149.10886,,,0,,,,
1205,1205,Pockett Av after Perrin Cct, ,-35.46756,149.09537,,,0,,,,
1688,1688,Templestowe Av opp Eaglemont Rt, ,-35.46383,149.11121,,,0,,,,
4718,4718,Burdekin Av before Reeve Cl, ,-35.1684,149.12203,,,0,,,,
2535,2535,Gilmore Cr opp Garran Shops, ,-35.34209,149.10898,,,0,,,,
1204,1204,Pockett Av after 2nd Ironbark Cr, ,-35.46947,149.09764,,,0,,,,
1687,1687,Templestowe Av after Eaglemont Rt, ,-35.46389,149.11134,,,0,,,,
1203,1203,Pockett Av after Wilson Cr, ,-35.4717,149.09692,,,0,,,,
2534,2534,Garran Shops Gilmore Cr, ,-35.34204,149.10879,,,0,,,,
1686,1686,Paperbark St before Jane Sutherland St, ,-35.46824,149.10599,,,0,,,,
2533,2533,Gilmore Cr opp 1st Ingamells St, ,-35.34006,149.10709,,,0,,,,
1202,1202,Pockett Av after Bellchambers Cr, ,-35.47408,149.09317,,,0,,,,
1685,1685,Paperbark St after 1st Kettlewell Cr, ,-35.46835,149.10568,,,0,,,,
2532,2532,Gilmore Cr after 2nd Ingamells St, ,-35.34007,149.10745,,,0,,,,
1201,1201,Knoke Av after 1st Harry Hopman Cct, ,-35.47281,149.08928,,,0,,,,
1684,1684,Paperbark St opp 1st Kettlewell Cr, ,-35.46986,149.10443,,,0,,,,
2531,2531,Gilmore Cr after Sabine Cl, ,-35.33966,149.1041,,,0,,,,
1200,1200,Knoke Av after 2nd Harry Hopman Cct, ,-35.46726,149.08765,,,0,,,,
1683,1683,Paperbark St before 2nd Kettlewell Cr, ,-35.4692,149.10467,,,0,,,,
2530,2530,Gilmore Cr at 1st Ingamells St, ,-35.3395,149.10356,,,0,,,,
4710,4710,Mirrabei Dr after Wanganeen Av Southbound, ,-35.1706,149.11668,,,0,,,,
4711,4711,Mirrabei Dr before Wanganeen Av, ,-35.16979,149.11626,,,0,,,,
4712,4712,Mirrabei Dr before Shoalhaven Av, ,-35.17347,149.11981,,,0,,,,
4713,4713,Mirrabei Dr after 2nd Paul Coe Cr, ,-35.17295,149.11885,,,0,,,,
1208,1208,Tom Roberts Av opp Charles Conder PS, ,-35.46532,149.0984,,,0,,,,
4714,4714,Shoalhaven Av before Roderick St, ,-35.17329,149.12213,,,0,,,,
2539,2539,Gilmore Cr opp 1st Eldridge Cr, ,-35.345,149.10707,,,0,,,,
4715,4715,Shoalhaven Av after Roderick St, ,-35.17333,149.12238,,,0,,,,
1207,1207,Tom Roberts Av at Box Hill Av, ,-35.46382,149.0965,,,0,,,,
1220,1220,Tom Roberts Av before Altson Cct, ,-35.4613,149.10181,,,0,,,,
1217,1217,Lanyon Marketplace Box Hill Av, ,-35.45635,149.09247,,,0,,,,
4727,4727,Gundaroo Dr opp Gungahlin Lakes Club, ,-35.18823,149.11574,,,0,,,,
1216,1216,Box Hill Av opp St Clare of Assisi PS, ,-35.45771,149.09737,,,0,,,,
4728,4728,Lexcen Av after Northam St, ,-35.18378,149.10817,,,0,,,,
1215,1215,Box Hill Av opp Lanyon Marketplace, ,-35.45617,149.0925,,,0,,,,
4729,4729,Lexcen Av opp Anne Clark Av, ,-35.18415,149.10634,,,0,,,,
1699,1699,Holy Family PS Bugden Av, ,-35.41001,149.11827,,,0,,,,
1214,1214,Tom Roberts Av after 1st Beaumaris St, ,-35.4664,149.10042,,,0,,,,
1698,1698,Bugden Av opp Holy Family PS, ,-35.41004,149.11839,,,0,,,,
1697,1697,Barr Smith Av opp 1st Derrington Cr, ,-35.43095,149.07507,,,0,,,,
1213,1213,Tom Roberts Av after Box Hill Av, ,-35.46042,149.09926,,,0,,,,
1696,1696,Barr Smith Av opp 2nd Derrington Cr, ,-35.43218,149.0768,,,0,,,,
1212,1212,Tom Roberts Av opp John Russell Cct, ,-35.46122,149.1022,,,0,,,,
2542,2542,Streeton Dr before Namatjira Dr, ,-35.35568,149.04883,,,0,,,,
1211,1211,Tom Roberts Av before 1st Templestowe Av, ,-35.46223,149.10519,,,0,,,,
1210,1210,Tom Roberts Av before Jane Sutherland St, ,-35.4663,149.10561,,,0,,,,
4720,4720,Paul Coe Cr Shops Paul Coe Cr, ,-35.17467,149.12004,,,0,,,,
4721,4721,Paul Coe Cr after Paul Coe Cr Shops, ,-35.1754,149.11993,,,0,,,,
4722,4722,Paul Coe Cr after Mulleun Cl, ,-35.17631,149.11952,,,0,,,,
4723,4723,Paul Coe Cr after Noongale Cct, ,-35.17624,149.11968,,,0,,,,
4724,4724,Paul Coe Cr after Galmarra St, ,-35.17783,149.11899,,,0,,,,
1219,1219,Tom Roberts Av before Box Hill Av, ,-35.46047,149.09901,,,0,,,,
4725,4725,Paul Coe Cr before Galmarra St, ,-35.17792,149.11906,,,0,,,,
1218,1218,St Clare of Assisi PS Box Hill Av, ,-35.45798,149.09746,,,0,,,,
4726,4726,Gungahlin Lakes Club Gundaroo Dr, ,-35.18842,149.11479,,,0,,,,
1231,1231,Knoke Av opp O'Hara Cl, ,-35.47087,149.08879,,,0,,,,
2562,2562,Forrest PS Hobart Av SSO, ,-35.31516,149.12511,,,0,,,,
1230,1230,Knoke Av after Minnett Cl, ,-35.47076,149.0889,,,0,,,,
2561,2561,Phillip Av opp Dickson College SSO, ,-35.24881,149.15486,,,0,,,,
2560,2560,Ipima St before Wise St, ,-35.26611,149.13687,,,0,,,,
1228,1228,Pockett Av before Brockway Cct, ,-35.4735,149.09174,,,0,,,,
3406,3406,City Interchange Plt 3, ,-35.27851,149.1297,,,0,,,,
1227,1227,Banks Shops Pockett Av, ,-35.47243,149.09595,,,0,,,,
2558,2558,Daramalan College Cowper St, ,-35.25264,149.13936,,,0,,,,
1226,1226,Pockett Av opp Wiburd St, ,-35.47039,149.09766,,,0,,,,
3404,3404,City Interchange Plt 12, ,-35.27874,149.13051,,,0,,,,
2557,2557,Canberra Girls Grammar Junior School Grounds SSO, ,-35.31218,149.11147,,,0,,,,
1225,1225,Pockett Av before 2nd Tregellas Cr, ,-35.46759,149.09528,,,0,,,,
2556,2556,Melbourne Av before Empire Cct, ,-35.31664,149.11658,,,0,,,,
3403,3403,Braybrooke St before Battye St, ,-35.2447,149.0997,,,0,,,,
1224,1224,Pockett Av before Box Hill Av, ,-35.46499,149.09395,,,0,,,,
3402,3402,City Interchange Plt 11, ,-35.27929,149.13043,,,0,,,,
2555,2555,St Francis Xavier College Barnard Cct SSO, ,-35.2247,149.04184,,,0,,,,
3401,3401,City Interchange Plt 10, ,-35.27937,149.13059,,,0,,,,
1223,1223,Charles Conder PS Tom Roberts Av, ,-35.46486,149.09798,,,0,,,,
2553,2553,Gold Creek PS Kelleway Av, ,-35.18152,149.10066,,,0,,,,
1221,1221,Tom Roberts Av before Lethbridge St, ,-35.4622,149.10498,,,0,,,,
4730,4730,Anne Clark Av before Monaghan Pl, ,-35.18406,149.10463,,,0,,,,
4731,4731,Anne Clark Av opp Freda Bennett Cct, ,-35.18132,149.10402,,,0,,,,
4733,4733,Jabanungga Av after Ngunnawal Shops, ,-35.17297,149.10741,,,0,,,,
4734,4734,Jabanungga Av after Manity Cr, ,-35.17278,149.10735,,,0,,,,
4735,4735,Jabanungga Av after 1st Bimbiang Cr, ,-35.17166,149.10518,,,0,,,,
3409,3409,City Interchange Plt 4, ,-35.27845,149.13039,,,0,,,,
4736,4736,Jabanungga Av after Taylor St, ,-35.1716,149.10524,,,0,,,,
3407,3407,Braybrooke St after Battye St, ,-35.2443,149.09979,,,0,,,,
1229,1229,Knoke Av after Coventry Cl, ,-35.47285,149.08945,,,0,,,,
4737,4737,Jabanungga Av before 2nd Bimbiang Cr, ,-35.17101,149.10402,,,0,,,,
4750,4750,Federal Hwy opp Phillip Av, ,-35.23566,149.14386,,,0,,,,
1242,1242,Clare Dennis Av opp Churchill Way, ,-35.44464,149.08717,,,0,,,,
3420,3420,City Interchange Plt 9, ,-35.27907,149.13062,,,0,,,,
1241,1241,Clare Dennis Av before 2nd Noel Ryan Gdn, ,-35.44654,149.08545,,,0,,,,
2572,2572,St Michaels PS Tyrell Cct, ,-35.22361,149.10898,,,0,,,,
1240,1240,Preddey Way at Fingleton Cr, ,-35.44816,149.0842,,,0,,,,
2571,2571,Narrabundah College Jerrabomberra Av, ,-35.33587,149.14789,,,0,,,,
1239,1239,61 Lewis Luxton Av, ,-35.44873,149.08714,,,0,,,,
4749,4749,Federal Hwy after Phillip Av, ,-35.23671,149.1429,,,0,,,,
3417,3417,Miles Franklin PS Alderman St SSO, ,-35.21357,149.06665,,,0,,,,
1238,1238,Lewis Luxton Av before Blinkhorn Pl, ,-35.4509,149.08934,,,0,,,,
2569,2569,Melba HS School Grounds SSO, ,-35.21389,149.0491,,,0,,,,
1237,1237,Lewis Luxton Av before 1st Cerutty Cr, ,-35.453,149.08734,,,0,,,,
2566,2566,Warragamba Av after Eucumbene Dr, ,-35.33092,149.0298,,,0,,,,
1235,1235,Knoke Av after Midge St, ,-35.46066,149.08572,,,0,,,,
3413,3413,City Interchange Plt 8, ,-35.27833,149.13071,,,0,,,,
2565,2565,Warragamba Av before Eucumbene Dr, ,-35.33104,149.02963,,,0,,,,
1234,1234,Knoke Av opp Jim Pike Av, ,-35.46198,149.08365,,,0,,,,
1233,1233,Knoke Av before Matson St, ,-35.46567,149.08559,,,0,,,,
2564,2564,St John the Apostle PS Barnard Cct SSO, ,-35.22488,149.04179,,,0,,,,
3410,3410,City Interchange Plt 6, ,-35.27777,149.13062,,,0,,,,
1232,1232,Knoke Av before 2nd Mina Wylie Cr, ,-35.46717,149.08768,,,0,,,,
2563,2563,Starke St after Powell St, ,-35.22771,149.01811,,,0,,,,
4742,4742,Gurrang Av after Wanganeen Av, ,-35.17097,149.11076,,,0,,,,
4743,4743,Gurrang Av opp Deumonga Ct, ,-35.17234,149.11459,,,0,,,,
4744,4744,Gurrang Av before Ferguson Cct, ,-35.17501,149.11385,,,0,,,,
4745,4745,Amagula Av after Ferguson Cct, ,-35.17685,149.11362,,,0,,,,
4746,4746,Amagula Av after Taggerty St, ,-35.17865,149.11453,,,0,,,,
3419,3419,City Interchange Plt 1, ,-35.27832,149.12814,,,0,,,,
4747,4747,Amagula Av after 1st Bungaree Cr, ,-35.1805,149.11307,,,0,,,,
3418,3418,City Interchange Plt 2, ,-35.27826,149.12872,,,0,,,,
4748,4748,Amagula Av before 2nd Bungaree Cr, ,-35.18151,149.11275,,,0,,,,
1253,1253,Fremantle Dr opp 1st McKail Cr, ,-35.34736,149.04819,,,0,,,,
3431,3431,McCaughey St after Barry Dr, ,-35.27281,149.12236,,,0,,,,
2100,2100,Culgoa Cct opp 2nd Jindalee Cr, ,-35.35431,149.1051,,,0,,,,
3430,3430,Aspinall St after Mary Kitson St, ,-35.23057,149.15775,,,0,,,,
1252,1252,Fremantle Dr before Bunbury St, ,-35.34829,149.04924,,,0,,,,
2582,2582,Streeton Dr after Namatjira Dr, ,-35.35571,149.04865,,,0,,,,
1251,1251,Fremantle Dr before Streeton Dr, ,-35.3466,149.04704,,,0,,,,
2581,2581,Brindabella Christian College Brigalow St, ,-35.24929,149.12743,,,0,,,,
1250,1250,Fremantle Dr after Streeton Dr, ,-35.34641,149.04694,,,0,,,,
2580,2580,Telopea Park School New South Wales Cr SSO, ,-35.31509,149.13382,,,0,,,,
3428,3428,Aspinall St after Roma Mitchell Cr, ,-35.23112,149.15527,,,0,,,,
3427,3427,Aspinall St opp Roma Mitchell Cr, ,-35.23104,149.15509,,,0,,,,
1249,1249,Streeton Dr before Hindmarsh Dr, ,-35.34461,149.04704,,,0,,,,
2579,2579,Lhotsky St St Thomas Aquinas PS SSO, ,-35.2048,149.03066,,,0,,,,
1248,1248,Streeton Dr before 1st Fremantle Dr, ,-35.34468,149.04709,,,0,,,,
3424,3424,Milne Bay Rd before Tobruk Rd, ,-35.29265,149.16321,,,0,,,,
2577,2577,St Matthews PS Stutchbury St SSO, ,-35.23991,149.04254,,,0,,,,
2576,2576,Astrolabe St Red Hill PS SSO, ,-35.3394,149.13251,,,0,,,,
1243,1243,Clare Dennis Av after Woodfull Lp, ,-35.44312,149.08585,,,0,,,,
3421,3421,City Interchange Plt 7, ,-35.27789,149.13077,,,0,,,,
4753,4753,Gurrang Av after Marungul Av, ,-35.17465,149.11381,,,0,,,,
4754,4754,Sandford St after Flemington Rd, ,-35.22108,149.1427,,,0,,,,
4755,4755,Sandford St before 1st Winchombe Ct, ,-35.22065,149.14114,,,0,,,,
4756,4756,Sandford St opp 2nd Kemble Crt, ,-35.22056,149.13876,,,0,,,,
4757,4757,Sandford St before 1st Kemble Ct, ,-35.22031,149.13838,,,0,,,,
4758,4758,Hoskins St opp Lysaght St, ,-35.21657,149.1371,,,0,,,,
3429,3429,Aspinall St opp Mary Kitson St, ,-35.23056,149.15756,,,0,,,,
4759,4759,Hoskins St after Lysaght St, ,-35.21634,149.13741,,,0,,,,
4773,4773,Kosciuszko Av before Gungahlin Dr, ,-35.19375,149.12694,,,0,,,,
3442,3442,College St opp CISAC, ,-35.24308,149.07504,,,0,,,,
1264,1264,Namatjira Dr opp Perry Dr, ,-35.35848,149.04793,,,0,,,,
2595,2595,Melbourne Av at Empire Cct, ,-35.31641,149.11742,,,0,,,,
2111,2111,Julia Flynn Av after Adkinson Cl, ,-35.36421,149.11055,,,0,,,,
3441,3441,CISAC College St, ,-35.24291,149.07451,,,0,,,,
1263,1263,Namatjira Dr after Badimara St, ,-35.35511,149.0508,,,0,,,,
2594,2594,Melbourne Av at National Cct, ,-35.31461,149.11902,,,0,,,,
2110,2110,Bromby St after Julia Flynn Av, ,-35.36364,149.10765,,,0,,,,
2593,2593,Melbourne Av after Somers Cr, ,-35.31293,149.12053,,,0,,,,
1262,1262,Wiburd St before Pockett Av, ,-35.46993,149.09866,,,0,,,,
3440,3440,Vowles Cr opp CIT Solutions, ,-35.25005,149.09572,,,0,,,,
2592,2592,Callam St after Hindmarsh Dr, ,-35.34819,149.08934,,,0,,,,
1261,1261,Tom Roberts Av after Wiburd St, ,-35.46656,149.10051,,,0,,,,
2591,2591,Namatjira Dr after Parkinson St, ,-35.34305,149.0574,,,0,,,,
1260,1260,St John Vianney Namatjira Dr, ,-35.35192,149.05415,,,0,,,,
3439,3439,CIT Solutions Vowels Cr, ,-35.25008,149.09592,,,0,,,,
2108,2108,Bromby St opp Cobbadah St, ,-35.36208,149.10713,,,0,,,,
3438,3438,Archdall St before Jonsson Ct, ,-35.20229,149.01592,,,0,,,,
2107,2107,Bromby St before Cobbadah St, ,-35.36213,149.10695,,,0,,,,
1259,1259,Namatjira Dr after Streeton Dr, ,-35.35519,149.05049,,,0,,,,
3437,3437,Archall St after Cashion Ct, ,-35.20205,149.01566,,,0,,,,
2106,2106,Ngunawal Dr after Kareelah Vsta, ,-35.35962,149.10909,,,0,,,,
1258,1258,Namatjira Dr opp St John Vianney, ,-35.35258,149.0533,,,0,,,,
2105,2105,Ngunawal Dr before Kareelah Vsta, ,-35.35944,149.10904,,,0,,,,
2104,2104,Kareelah Vsta after Taronga Pl, ,-35.35778,149.10838,,,0,,,,
2587,2587,Parliament House Parliament Dr Northbound, ,-35.30908,149.12608,,,0,,,,
3434,3434,Ginninderra Dr before Lance Hill Av, ,-35.19958,149.01866,,,0,,,,
2103,2103,Kareelah Vsta before Numeralla St, ,-35.35743,149.10768,,,0,,,,
2586,2586,Parliament House Parliament Dr Southbound, ,-35.30727,149.12274,,,0,,,,
2102,2102,Kareelah Vsta after Gerogery Pl, ,-35.35548,149.10713,,,0,,,,
2101,2101,Kareelah Vsta after Mialli Pl, ,-35.35546,149.10727,,,0,,,,
2109,2109,Bromby St after William Wilkins Cr, ,-35.3636,149.10777,,,0,,,,
4780,4780,Palmerston PS Koscuiszko Av, ,-35.19783,149.12172,,,0,,,,
4781,4781,Koscuiszko Av after Palmerston Shops, ,-35.19768,149.11928,,,0,,,,
4782,4782,Kosciuszko Av before Grampians St, ,-35.19615,149.11598,,,0,,,,
4783,4783,Kosciuszko Av before Tiptree Cr, ,-35.19615,149.11612,,,0,,,,
4784,4784,Kosciuszko Av after Bimberi Cr, ,-35.19396,149.11444,,,0,,,,
1275,1275,Barritt St before Kambah Pool Rd, ,-35.37809,149.04829,,,0,,,,
2122,2122,Dixon Dr opp Warragamba Av, ,-35.33004,149.04199,,,0,,,,
2121,2121,Dixon Dr after Hyndes Cr, ,-35.32981,149.04387,,,0,,,,
1274,1274,Barritt St after Kambah Pool Rd, ,-35.37799,149.04837,,,0,,,,
2120,2120,Dixon Dr opp Hyndes Cr, ,-35.32968,149.04385,,,0,,,,
1273,1273,Kambah Pool Rd after Barritt St, ,-35.37534,149.04862,,,0,,,,
1272,1272,Kambah Pool Rd after Sulwood Dr, ,-35.37514,149.04897,,,0,,,,
1271,1271,Namatjira Dr opp 223, ,-35.36433,149.05032,,,0,,,,
1270,1270,Namatjira Dr before Perry Dr, ,-35.36044,149.04765,,,0,,,,
2119,2119,Dixon Dr opp Guy Pl, ,-35.32947,149.04627,,,0,,,,
2118,2118,Dixon Dr after Twynam St, ,-35.32956,149.04643,,,0,,,,
2117,2117,Heysen St after Bunny St, ,-35.33332,149.06068,,,0,,,,
1269,1269,Namatjira Dr after Perry Dr, ,-35.35821,149.04788,,,0,,,,
2116,2116,Heysen St before Bellette St, ,-35.33335,149.0609,,,0,,,,
2115,2115,Heysen St before Gruner St, ,-35.3313,149.05879,,,0,,,,
2114,2114,Heysen St opp Gruner St, ,-35.33108,149.05861,,,0,,,,
2598,2598,Kingston Shops Giles St, ,-35.3158,149.1402,,,0,,,,
2113,2113,Mulley St opp St Judes PS, ,-35.33562,149.05104,,,0,,,,
2597,2597,Brigalow St opp Brindabella Christian College, ,-35.24839,149.12747,,,0,,,,
3444,3444,Lance Hill Av before Fairlight St, ,-35.19521,149.02026,,,0,,,,
1266,1266,Namatjira Dr opp 204, ,-35.36369,149.04993,,,0,,,,
2112,2112,St Judes PS Mulley St, ,-35.33553,149.05109,,,0,,,,
3443,3443,Lance Hill Av after Santry Pl, ,-35.1968,149.02179,,,0,,,,
2596,2596,Kingston Shops Eyre St, ,-35.31662,149.14182,,,0,,,,
1265,1265,Namatjira Dr before Kapunda St, ,-35.36059,149.04781,,,0,,,,
4774,4774,Kosciuszko Av opp Redcliffe St, ,-35.19495,149.12518,,,0,,,,
4775,4775,Kosciuszko Av before Mainwaring Rich Cct, ,-35.19462,149.12546,,,0,,,,
4776,4776,Kosciuszko Av before Bollard St, ,-35.19633,149.12442,,,0,,,,
4777,4777,Kosciuszko Av before Redcliffe St, ,-35.19626,149.12433,,,0,,,,
4778,4778,Kosciuszko Av after Bollard St, ,-35.19785,149.12337,,,0,,,,
4779,4779,Kosciuszko Av opp Bollard St, ,-35.19769,149.12351,,,0,,,,
4790,4790,Kosciuszko Av after 2nd Buller Cr, ,-35.18945,149.12083,,,0,,,,
4791,4791,Kosciuszko Av after Amarina St, ,-35.18967,149.12067,,,0,,,,
4792,4792,Gundaroo Dr after Chuculba Cr, ,-35.21015,149.08789,,,0,,,,
4793,4793,Gundaroo Dr opp Chuculba Cr, ,-35.2101,149.08748,,,0,,,,
4310,4310,Starke St before Beaurepaire Cr, ,-35.2271,149.01723,,,0,,,,
4311,4311,Beaurepaire Cr after Starke St, ,-35.22689,149.01602,,,0,,,,
2133,2133,Duffy Shops Burrinjuck Cr, ,-35.33682,149.03175,,,0,,,,
1286,1286,Boddington Cr opp Broad Pl, ,-35.3892,149.05666,,,0,,,,
2132,2132,Burrinjuck Cr after 1st Blowering St, ,-35.33302,149.03722,,,0,,,,
1285,1285,Boddington Cr opp McLeod Pl, ,-35.39004,149.05365,,,0,,,,
2131,2131,Burrinjuck Cr before 2nd Blowering St, ,-35.3336,149.03465,,,0,,,,
1284,1284,Boddington Cr after Bateman St, ,-35.38919,149.05136,,,0,,,,
2130,2130,Burrinjuck Cr before Serpentine St, ,-35.33347,149.03479,,,0,,,,
1283,1283,Boddington Cr after 2nd Castley Cct, ,-35.38928,149.05164,,,0,,,,
1282,1282,Boddington Cr after 2nd Crozier Cct, ,-35.38578,149.05041,,,0,,,,
3460,3460,Watkin St after Battye St, ,-35.24545,149.09528,,,0,,,,
1281,1281,Boddington Cr before 1st Castley Cct, ,-35.38503,149.05057,,,0,,,,
1280,1280,Boddington Cr opp Carleton St, ,-35.38209,149.05129,,,0,,,,
4309,4309,Macnaughton St after Drake Brockman Dr, ,-35.23054,149.01727,,,0,,,,
2129,2129,Duffy PS Burrinjuck Cr, ,-35.33485,149.03191,,,0,,,,
3459,3459,Watkin St after Thynne St, ,-35.24496,149.09549,,,0,,,,
2128,2128,Burrinjuck Cr opp Duffy PS, ,-35.3342,149.03227,,,0,,,,
1279,1279,Boddington Cr after Carleton St, ,-35.38209,149.05115,,,0,,,,
2125,2125,Warragamba Av after Dixon Dr, ,-35.33028,149.03818,,,0,,,,
1278,1278,Boddington Cr before Barritt St, ,-35.38121,149.05177,,,0,,,,
2124,2124,Warragamba Av before Dixon Dr, ,-35.33018,149.03816,,,0,,,,
1277,1277,Barritt St after Boddington Cr, ,-35.37986,149.05119,,,0,,,,
2123,2123,Dixon Dr after Warragamba Av, ,-35.32995,149.04189,,,0,,,,
1276,1276,Barritt St before Boddington Cr, ,-35.38021,149.05187,,,0,,,,
4785,4785,Kosciuszko Av opp Brinkley Cct, ,-35.19375,149.11452,,,0,,,,
4301,4301,Findlay St after Kinsella St, ,-35.23418,149.02841,,,0,,,,
4302,4302,Findlay St after Cantor Cr, ,-35.23388,149.02828,,,0,,,,
4786,4786,Kosciuszko Av before Burrowa St, ,-35.19233,149.11462,,,0,,,,
4787,4787,Kosciuszko Av before 2nd Freeling Cct, ,-35.19222,149.11475,,,0,,,,
4303,4303,Fullagar Cr after Davidson St, ,-35.23327,149.02525,,,0,,,,
4304,4304,The Henry Fullagar Cr, ,-35.23322,149.02554,,,0,,,,
4788,4788,Kosciuszko Av after 2nd Sentry Cr, ,-35.19058,149.11801,,,0,,,,
4789,4789,Kosciuszko Av after Gingera St, ,-35.1907,149.11777,,,0,,,,
4305,4305,Cussen St before Davidson St, ,-35.23347,149.0224,,,0,,,,
4306,4306,Cussen St before Bundey St, ,-35.23338,149.0224,,,0,,,,
4307,4307,Drake Brockman Dr opp Cussen St, ,-35.23309,149.01953,,,0,,,,
4308,4308,Drake Brockman Dr before Cussen St, ,-35.23304,149.01967,,,0,,,,
4320,4320,Kingsford Smith School Hardwick Cr, ,-35.22725,149.02315,,,0,,,,
4321,4321,Spofforth St opp Messenger St, ,-35.22226,149.00597,,,0,,,,
4322,4322,Spofforth St before Messenger St, ,-35.22243,149.00601,,,0,,,,
2144,2144,Hindmarsh Dr after Dixon Dr, ,-35.34205,149.04245,,,0,,,,
1297,1297,O'Halloran Cct before Ashby Cct, ,-35.3941,149.06592,,,0,,,,
3475,3475,Aspinall St before Antill St, ,-35.22901,149.16551,,,0,,,,
2143,2143,Wyangala St opp 1st Burdekin St, ,-35.34079,149.03372,,,0,,,,
3474,3474,Fairbairn Av opp War Memorial, ,-35.28271,149.14873,,,0,,,,
1296,1296,O'Halloran Cct after Vansittart Cr, ,-35.39592,149.0629,,,0,,,,
3473,3473,War Memorial Fairbairn Av, ,-35.28261,149.15004,,,0,,,,
2142,2142,Wyangala St after 2nd Burdekin St, ,-35.34137,149.03308,,,0,,,,
1295,1295,O'Halloran Cct before Vansittart Cr, ,-35.39579,149.06288,,,0,,,,
2141,2141,Wyangala St at Tullaroop St, ,-35.34252,149.03217,,,0,,,,
1294,1294,O'Halloran Cct opp 2nd Snodgrass Cr, ,-35.39581,149.05928,,,0,,,,
2140,2140,Hindmarsh Dr opp Darwinia Tce, ,-35.34383,149.03012,,,0,,,,
1293,1293,O'Halloran Cct before 1st Snodgrass Cr, ,-35.39562,149.05925,,,0,,,,
1292,1292,O'Halloran Cct before 2nd McKillop Cct, ,-35.39312,149.05801,,,0,,,,
1291,1291,O'Halloran Cct after 2nd Springbett St, ,-35.39291,149.0582,,,0,,,,
1290,1290,O'Halloran Cct before Boddington Cr, ,-35.39036,149.05885,,,0,,,,
2139,2139,Weston Creek Terminus, ,-35.34403,149.02786,,,0,,,,
3469,3469,8 Brindabella Cct, ,-35.31317,149.19028,,,0,,,,
2138,2138,22 Eucumbene Dr, ,-35.34119,149.02754,,,0,,,,
2137,2137,Eucumbene Dr opp 22, ,-35.34104,149.02753,,,0,,,,
3467,3467,Brindabella Business Park Molonglo Dr, ,-35.31635,149.19032,,,0,,,,
2136,2136,Renmark St after Eungella St, ,-35.33846,149.03046,,,0,,,,
1289,1289,O'Halloran Cct opp Boddington Cr, ,-35.39038,149.05904,,,0,,,,
2135,2135,Renmark St after 1st Jemalong St, ,-35.33844,149.03027,,,0,,,,
1288,1288,Boddington Cr before Broad Pl, ,-35.38939,149.05716,,,0,,,,
2134,2134,Burrinjuck Cr opp Duffy Shops, ,-35.33704,149.03159,,,0,,,,
1287,1287,Boddington Cr after McLeod Pl, ,-35.39032,149.0538,,,0,,,,
4312,4312,Beaurepaire Cr before Starke St, ,-35.22677,149.01602,,,0,,,,
4797,4797,Campbell HS Treloar Cr SSO, ,-35.27887,149.14772,,,0,,,,
4313,4313,Beaurepaire Cr before Trickett St, ,-35.22671,149.01328,,,0,,,,
4314,4314,Beaurepaire Cr after Rice Pl, ,-35.22659,149.01349,,,0,,,,
4315,4315,Beaurepaire Cr opp Holt Shops, ,-35.22513,149.01091,,,0,,,,
4316,4316,Holt Shops Beaurepaire Cr, ,-35.22498,149.01108,,,0,,,,
4330,4330,Southern Cross Dr after 2nd Starke St, ,-35.21954,149.01631,,,0,,,,
4331,4331,YMCA Starke St, ,-35.22145,149.01727,,,0,,,,
4332,4332,Starke St opp YMCA, ,-35.22171,149.01706,,,0,,,,
4333,4333,Kippax Interchange, ,-35.22243,149.01947,,,0,,,,
3486,3486,Liversidge St before Ellery Cr, ,-35.28219,149.12097,,,0,,,,
2155,2155,Darwinia Tce after Perry Dr, ,-35.35244,149.03424,,,0,,,,
2154,2154,Darwinia Tce after Casuarina St, ,-35.35232,149.03415,,,0,,,,
3485,3485,Campbell PS School Grounds SSO, ,-35.29051,149.15608,,,0,,,,
2153,2153,Darwinia Tce before Rafferty St, ,-35.35139,149.03197,,,0,,,,
3000,3000,City Interchange Plt 9 Arrivals, ,-35.27884,149.13065,,,0,,,,
2152,2152,Darwinia Tce opp Rafferty St, ,-35.35142,149.03217,,,0,,,,
2151,2151,Darwinia Tce after Rafferty St, ,-35.35017,149.0302,,,0,,,,
2150,2150,Darwinia Tce after Angophora St, ,-35.34998,149.03011,,,0,,,,
2149,2149,Darwinia Tce after Kathner St, ,-35.3463,149.02861,,,0,,,,
2148,2148,Darwinia Tce opp Kathner St, ,-35.34661,149.02872,,,0,,,,
2147,2147,Hindmarsh Dr before Darwinia Tce, ,-35.34391,149.0303,,,0,,,,
1299,1299,O'Halloran Cct opp Namadgi School, ,-35.39307,149.06767,,,0,,,,
1298,1298,O'Halloran Cct opp Ashby Cct, ,-35.39397,149.0658,,,0,,,,
3476,3476,Aspinall St after Antill St, ,-35.22909,149.16547,,,0,,,,
2145,2145,Hindmarsh Dr opp Dixon Dr, ,-35.34216,149.04257,,,0,,,,
4323,4323,Spofforth St before Southern Cross Dr, ,-35.22038,149.00694,,,0,,,,
4324,4324,Spofforth St after Southern Cross Dr, ,-35.22024,149.00713,,,0,,,,
4325,4325,Southern Cross Dr opp Spofforth St, ,-35.21807,149.00833,,,0,,,,
4326,4326,Southern Cross Dr before Spofforth St, ,-35.21825,149.00862,,,0,,,,
4327,4327,Southern Cross Dr after O'Reilly St, ,-35.21869,149.0116,,,0,,,,
4328,4328,Southern Cross Dr opp O'Reilly St, ,-35.21878,149.01141,,,0,,,,
4329,4329,Southern Cross Dr opp 1st Starke St, ,-35.21939,149.01607,,,0,,,,
4340,4340,Fullagar Cr opp Northmore Cr, ,-35.22821,149.02835,,,0,,,,
4341,4341,Fullagar Cr opp Higgins Shops, ,-35.23136,149.02779,,,0,,,,
4342,4342,Higgins Shops Fullagar Cr, ,-35.23131,149.02762,,,0,,,,
4343,4343,Castieau St after Dethridge St, ,-35.23022,149.03082,,,0,,,,
4344,4344,Castieau St after Hodges St, ,-35.23033,149.03114,,,0,,,,
2166,2166,Kalgoorlie Cr before Callide St, ,-35.36021,149.05315,,,0,,,,
3012,3012,Edmund Barton Building Kings Av, ,-35.30429,149.13481,,,0,,,,
2165,2165,Perry Dr opp Bertel Cr, ,-35.35931,149.04437,,,0,,,,
3011,3011,Russell Offices Russell Dr, ,-35.2973,149.15027,,,0,,,,
2164,2164,Perry Dr at Bertel Cr, ,-35.35951,149.04454,,,0,,,,
2163,2163,Chapman PS Perry Dr, ,-35.35683,149.0426,,,0,,,,
2162,2162,Perry Dr opp Chapman PS, ,-35.35689,149.04244,,,0,,,,
2161,2161,Chapman Shops Perry Dr, ,-35.35608,149.04039,,,0,,,,
2160,2160,Perry Dr opp Chapman Shops, ,-35.35623,149.04011,,,0,,,,
3009,3009,Constitution Av after Creswell St, ,-35.29184,149.14552,,,0,,,,
3008,3008,Constitution Av opp Anzac Park East, ,-35.29028,149.1429,,,0,,,,
3007,3007,Constitution Av opp Anzac Park West, ,-35.28821,149.13945,,,0,,,,
3006,3006,CIT Reid Constitution Av, ,-35.28677,149.13707,,,0,,,,
2159,2159,Perry Dr after Lipman St, ,-35.35701,149.03687,,,0,,,,
3005,3005,National Convention Centre Constitution Av, ,-35.2851,149.13419,,,0,,,,
2158,2158,Perry Dr before Musgrove St, ,-35.35688,149.03644,,,0,,,,
3004,3004,London Cct after Akuna St, ,-35.28228,149.1321,,,0,,,,
2157,2157,Perry Dr after 2nd Sidaway St, ,-35.35464,149.03445,,,0,,,,
2156,2156,Perry Dr before Rene St, ,-35.35472,149.03456,,,0,,,,
3003,3003,London Cct opp Legislative Assembly, ,-35.28156,149.13187,,,0,,,,
3487,3487,Liversidge St after Ellery Cr, ,-35.28247,149.12089,,,0,,,,
4334,4334,Kippax Terminus, ,-35.22248,149.01933,,,0,,,,
4339,4339,Fullagar Cr after Northmore Cr, ,-35.2282,149.02849,,,0,,,,
4350,4350,Wirraway Cr opp Southern Cross Early Childhood Sch, ,-35.23193,149.03697,,,0,,,,
4351,4351,Ross Smith Cr opp Scullin Shops, ,-35.2332,149.03929,,,0,,,,
4352,4352,Scullin Shops Ross Smith Cr, ,-35.23336,149.03931,,,0,,,,
3022,3022,Royal Australian Mint Denison St, ,-35.31882,149.09398,,,0,,,,
3021,3021,Denison St after King St, ,-35.32219,149.09389,,,0,,,,
3020,3020,Denison St opp The Woden School, ,-35.32591,149.09186,,,0,,,,
2173,2173,Kalgoorlie Cr after 1st Pandanus St, ,-35.36006,149.0612,,,0,,,,
2172,2172,Kalgoorlie Cr before 2nd Jarrahdale St, ,-35.36035,149.06088,,,0,,,,
2171,2171,Kalgoorlie Cr opp Kambalda Cr, ,-35.36278,149.05867,,,0,,,,
2170,2170,Kalgoorlie Cr after Kambalda Cr, ,-35.36286,149.05895,,,0,,,,
3019,3019,The Woden School Denison St, ,-35.32603,149.09196,,,0,,,,
3018,3018,Denison St after Napier Cl, ,-35.32186,149.09404,,,0,,,,
3017,3017,Denison St opp Royal Australian Mint, ,-35.31896,149.0941,,,0,,,,
2169,2169,Kalgoorlie Cr opp Fisher Shops, ,-35.36205,149.05647,,,0,,,,
2168,2168,Fisher Shops Kalgoorlie Cr, ,-35.36197,149.05664,,,0,,,,
2167,2167,Kalgoorlie Cr before Kapunda St, ,-35.36021,149.05293,,,0,,,,
4345,4345,Castieau St after Northmore Cr, ,-35.22985,149.03354,,,0,,,,
4346,4346,Castieau St after Kingsford Smith Dr, ,-35.22997,149.03342,,,0,,,,
4347,4347,Wirraway Cr after Kingsford Smith Dr, ,-35.23091,149.03532,,,0,,,,
4348,4348,Wirraway Cr after Ulm St, ,-35.23101,149.03529,,,0,,,,
4349,4349,Southern Cross Early Childhood School Wirraway Cr, ,-35.23196,149.03716,,,0,,,,
4360,4360,192 Southern Cross Dr, ,-35.22298,149.03026,,,0,,,,
4361,4361,Starke St opp Cranleigh School, ,-35.22546,149.02916,,,0,,,,
4362,4362,Cranleigh School Starke St, ,-35.22592,149.02837,,,0,,,,
4363,4363,Starke St opp Hardwick Cr, ,-35.228,149.02446,,,0,,,,
4364,4364,Starke St after Hardwick Cr, ,-35.22786,149.02463,,,0,,,,
4365,4365,Hardwick Cr before Powell St, ,-35.22532,149.02188,,,0,,,,
4366,4366,Hardwick Cr after Flack St, ,-35.22532,149.02205,,,0,,,,
3035,3035,Constitution Av opp National Convention Centre, ,-35.28486,149.13351,,,0,,,,
2188,2188,McInnes St after 2nd Chevalier St, ,-35.34324,149.05914,,,0,,,,
3034,3034,Constitution Av opp CIT Reid, ,-35.28635,149.13599,,,0,,,,
2187,2187,40 McInnes St, ,-35.34386,149.06149,,,0,,,,
3033,3033,Constitution Av after Anzac Park West, ,-35.28809,149.13895,,,0,,,,
2186,2186,McInnes St after 1st Chevalier St, ,-35.34394,149.06146,,,0,,,,
3032,3032,Anzac Park East Constitution Av, ,-35.29029,149.14261,,,0,,,,
2185,2185,McInnes St after 2nd Buvelot St, ,-35.3459,149.06299,,,0,,,,
3031,3031,Constitution Av after Russell Dr, ,-35.29178,149.14516,,,0,,,,
2184,2184,McInnes St after Hindmarsh Dr, ,-35.34598,149.06279,,,0,,,,
2183,2183,Badimara St before Hindmarsh Dr, ,-35.34978,149.06799,,,0,,,,
2182,2182,Badimara St after Hindmarsh Dr, ,-35.34992,149.06816,,,0,,,,
3029,3029,Russell Dr opp Russell Offices, ,-35.29713,149.1499,,,0,,,,
3028,3028,Kings Av before King Edward Tce, ,-35.30375,149.13539,,,0,,,,
3025,3025,Carruthers St opp Groom St, ,-35.32675,149.08997,,,0,,,,
4357,4357,Southern Cross Dr at Kingsford Smith Dr, ,-35.22677,149.03284,,,0,,,,
4358,4358,Southern Cross Dr after O'Loghlen St, ,-35.22657,149.03305,,,0,,,,
4359,4359,Southern Cross Dr before 1st Starke St, ,-35.22505,149.03131,,,0,,,,
2191,2191,McInnes St after Conder St, ,-35.34094,149.0582,,,0,,,,
4370,4370,Osburn Dr before Hirschfeld Cr, ,-35.21365,149.00919,,,0,,,,
2190,2190,McInnes St opp Conder St, ,-35.34091,149.05841,,,0,,,,
4371,4371,Osburn Dr opp Macgregor Shops, ,-35.21095,149.01065,,,0,,,,
4372,4372,Macgregor Shops Osburn Dr, ,-35.21126,149.01045,,,0,,,,
4373,4373,Osburn Dr after Cannan Cr, ,-35.20973,149.01303,,,0,,,,
4374,4374,Osburn Dr after Chalmers Pl, ,-35.21009,149.01224,,,0,,,,
4375,4375,Osburn Dr before Archdall St, ,-35.21088,149.01737,,,0,,,,
4376,4376,Osburn Dr opp Archdall St, ,-35.21103,149.01767,,,0,,,,
4377,4377,19 Archdall St, ,-35.20892,149.01747,,,0,,,,
2199,2199,Hilder St before Streeton Dr, ,-35.33559,149.05376,,,0,,,,
2198,2198,Hilder St at McCubbin St, ,-35.33556,149.05386,,,0,,,,
2197,2197,Hilder St after Gritten St, ,-35.33684,149.05565,,,0,,,,
3044,3044,Narrabundah Terminus Matina St, ,-35.33159,149.15897,,,0,,,,
2196,2196,Hilder St after 1st Lycett St, ,-35.33675,149.05614,,,0,,,,
2195,2195,Hilder St opp McInnes St, ,-35.33679,149.05782,,,0,,,,
3042,3042,City West Alinga St, ,-35.27825,149.12703,,,0,,,,
2194,2194,Hilder St before Gritten St, ,-35.33687,149.05792,,,0,,,,
2193,2193,McInnes St before Ironside St, ,-35.33841,149.05953,,,0,,,,
2192,2192,McInnes St before Gritten St, ,-35.33854,149.05943,,,0,,,,
2189,2189,McInnes St after 1st Buvelot St, ,-35.34263,149.05864,,,0,,,,
4367,4367,O'Reilly St before Osburn Dr, ,-35.21653,149.01071,,,0,,,,
4368,4368,Osburn Dr opp O'Reilly St, ,-35.21574,149.01071,,,0,,,,
4369,4369,Osburn Dr before Lipscomb Pl, ,-35.21365,149.00905,,,0,,,,
3056,3056,Ainslie Av before Elimatta St, ,-35.27758,149.14076,,,0,,,,
3055,3055,Ainslie Av after Elimatta St, ,-35.27706,149.14078,,,0,,,,
3054,3054,Ainslie Av after Doonkuna St, ,-35.27855,149.13826,,,0,,,,
3053,3053,Ainslie Av after Currong St, ,-35.2781,149.13812,,,0,,,,
3052,3052,Canberra Centre, ,-35.27942,149.13503,,,0,,,,
3051,3051,Canberra Centre to City, ,-35.27954,149.135,,,0,,,,
4380,4380,Archdall St after Barrett St, ,-35.20606,149.01666,,,0,,,,
3047,3047,Marcus Clarke St after Farrell Pl, ,-35.28133,149.12402,,,0,,,,
4378,4378,Archdall St before Beaney St, ,-35.20895,149.01762,,,0,,,,
4379,4379,Archdall St opp Barrett St, ,-35.20584,149.01659,,,0,,,,
4392,4392,Florey Dr after Osburn Dr, ,-35.21236,149.02487,,,0,,,,
3060,3060,General Bridges Dr before Gallipoli Rd, ,-35.29515,149.16658,,,0,,,,
4393,4393,Florey Dr opp Hayward St, ,-35.21397,149.02141,,,0,,,,
4394,4394,Florey Dr after Hayward St, ,-35.21392,149.02121,,,0,,,,
4395,4395,Florey Dr before Southern Cross Dr, ,-35.21836,149.01938,,,0,,,,
4396,4396,Florey Dr after Southern Cross Dr, ,-35.21832,149.01923,,,0,,,,
4397,4397,Southern Cross Dr before Dalley Cr, ,-35.22028,149.02501,,,0,,,,
4398,4398,Southern Cross Dr after Chave St, ,-35.22065,149.02518,,,0,,,,
4399,4399,Dalley Cr before 1st Solomon Cr, ,-35.21953,149.02649,,,0,,,,
3068,3068,Morrison Cct before Bruche Rd, ,-35.30203,149.16351,,,0,,,,
3067,3067,Parnell St after Plant Rd, ,-35.30022,149.16444,,,0,,,,
3066,3066,Parnell St before Plant Rd, ,-35.29978,149.16502,,,0,,,,
3065,3065,Parnell St opp Combes Rd, ,-35.29901,149.16586,,,0,,,,
3064,3064,Robert Campbell Rd before Parnell Rd, ,-35.29781,149.1671,,,0,,,,
3063,3063,Robert Campbell Rd before Wilton Rd, ,-35.29599,149.16911,,,0,,,,
4390,4390,Florey Dr opp  1st Heron Cr, ,-35.21105,149.02614,,,0,,,,
3062,3062,Robert Campbell Rd opp Miles Rd, ,-35.29652,149.16864,,,0,,,,
4391,4391,Florey Dr after Dalley Cr, ,-35.2124,149.02504,,,0,,,,
3061,3061,General Bridges Dr after Harrison Rd, ,-35.29511,149.16684,,,0,,,,
4389,4389,Florey Dr before 2nd Herron Cr, ,-35.21049,149.02661,,,0,,,,
3071,3071,Russell Dr before Kelliher Dr, ,-35.30141,149.15147,,,0,,,,
3070,3070,Russell Dr after Morshead Dr, ,-35.30071,149.15094,,,0,,,,
6100,6100,Redruth St opp Crace Shops, ,-35.20194,149.10695,,,0,,,,
6102,6102,Bernard Heinze Av before Tycho St, ,-35.15787,149.12225,,,0,,,,
6101,6101,Bernard Heinze Av after Gussey St, ,-35.15796,149.12338,,,0,,,,
6104,6104,Bernard Heinze Av before Crackajack Way, ,-35.15752,149.11791,,,0,,,,
6103,6103,Bernard Heinze Av after Yidaki Way, ,-35.1575,149.11813,,,0,,,,
3079,3079,Chauvel St opp Campbell PS, ,-35.29094,149.15538,,,0,,,,
3078,3078,Campbell PS Chauvel St, ,-35.29064,149.15503,,,0,,,,
3077,3077,Blamey Cr after Chauvel St, ,-35.29042,149.15299,,,0,,,,
3076,3076,Blamey Cr opp Chauvel St, ,-35.29063,149.15277,,,0,,,,
3075,3075,Blamey Cr before Vasey Cr, ,-35.29183,149.14989,,,0,,,,
3074,3074,Blamey Cr before Watt St, ,-35.29178,149.14949,,,0,,,,
3073,3073,Russell Dr before Vivian Bullwinkel Way, ,-35.29874,149.15111,,,0,,,,
3072,3072,Russell Dr before Kings Av, ,-35.29878,149.15086,,,0,,,,
3069,3069,Morrison Cct after Bruche Rd, ,-35.30142,149.1626,,,0,,,,
3082,3082,White St after Vasey Cr, ,-35.28698,149.15794,,,0,,,,
3081,3081,100 Vasey Cr, ,-35.28944,149.15817,,,0,,,,
6111,6111,Crackajack Way before Bandstand St, ,-35.15947,149.1176,,,0,,,,
3080,3080,Vasey Cr opp 100, ,-35.28937,149.15808,,,0,,,,
6110,6110,Kingslande Pde opp Casey Market Town, ,-35.17479,149.09605,,,0,,,,
6113,6113,Margaret Hendry School Sutherland Cr, ,-35.1516,149.11447,,,0,,,,
6112,6112,Crackajack Way opp Bandstand St, ,-35.16007,149.11819,,,0,,,,
6115,6115,Sutherland Cr opp Chadwick St, ,-35.14855,149.11232,,,0,,,,
6114,6114,Sutherland Cr opp Margaret Hendry School, ,-35.15088,149.11473,,,0,,,,
3089,3089,White St opp Campbell Shops, ,-35.28847,149.15358,,,0,,,,
3088,3088,Blamey Cr opp Edmondson St, ,-35.28695,149.15225,,,0,,,,
3087,3087,White St before 1st Glossop Cr, ,-35.28738,149.15506,,,0,,,,
3086,3086,Campbell Shops White St, ,-35.28854,149.1537,,,0,,,,
3085,3085,White St before 2nd Glossop Cr, ,-35.28645,149.1566,,,0,,,,
3084,3084,St Thomas More's PS White St, ,-35.28699,149.15546,,,0,,,,
3083,3083,Vasey Cr after White St, ,-35.28783,149.15855,,,0,,,,
6106,6106,Mirrabei Dr after O'Keefe Av, ,-35.15471,149.11493,,,0,,,,
6105,6105,Mirrabei Dr after Yamma Way, ,-35.1558,149.11438,,,0,,,,
6108,6108,Mirrabei Dr before Len Waters St, ,-35.15895,149.11327,,,0,,,,
6107,6107,Mirrabei Dr after Len Waters St, ,-35.15876,149.11317,,,0,,,,
6109,6109,Casey Market Town Kingsland Pde, ,-35.17378,149.09648,,,0,,,,
6120,6120,Grenfell Av after Holdford St, ,-35.15344,149.1048,,,0,,,,
3093,3093,Blamey Cr after Creswell St, ,-35.28551,149.14812,,,0,,,,
3092,3092,Currong St after Anzac Park West, ,-35.28432,149.1438,,,0,,,,
6122,6122,Horse Park Dr before Grenfell Av, ,-35.15684,149.10396,,,0,,,,
3091,3091,Blamey Cr before Edmondson St, ,-35.28623,149.15124,,,0,,,,
6121,6121,Horse Park Dr before Burrumarra Av, ,-35.15716,149.10378,,,0,,,,
3090,3090,Blamey Cr before Creswell St, ,-35.28563,149.14832,,,0,,,,
6123,6123,Aunty Agnes Shea HS Sports Grounds, ,-35.14989,149.10928,,,0,,,,
6126,6126,Horse Park Dr after Katherine Av, ,-35.16869,149.13855,,,0,,,,
3099,3099,Gooreen St after Allambee St, ,-35.27839,149.14255,,,0,,,,
3098,3098,Boldrewood St after Barry Dr, ,-35.27194,149.11945,,,0,,,,
3097,3097,Euree St after Elimatta St, ,-35.28201,149.14256,,,0,,,,
3096,3096,Gooreen St after Coranderrk St, ,-35.27863,149.14256,,,0,,,,
3095,3095,Currong St before Anzac Park West, ,-35.28433,149.14397,,,0,,,,
3094,3094,Euree St before Elimatta St, ,-35.28205,149.1424,,,0,,,,
6117,6117,Sutherland Cr opp Bischoff St, ,-35.14929,149.10877,,,0,,,,
6116,6116,Sutherland Cr after Chadwick St, ,-35.14848,149.11321,,,0,,,,
6119,6119,Grenfell Av before Morath St, ,-35.15319,149.10449,,,0,,,,
6118,6118,Sutherland Cr before Bischoff St, ,-35.14911,149.10864,,,0,,,,
6131,6131,Gungahlin Leisure Centre The Valley Av, ,-35.1868,149.12961,,,0,,,,
6130,6130,The Valley Av opp Gungahlin Leisure Centre, ,-35.18688,149.12961,,,0,,,,
6133,6133,The Valley Av before Warwick St, ,-35.18642,149.12666,,,0,,,,
6132,6132,The Valley Av after Warwick St, ,-35.18647,149.12659,,,0,,,,
6134,6134,Crace Shops Redruth St, ,-35.20209,149.10709,,,0,,,,
6128,6128,Horse Park Dr before Roden Cutler Dr, ,-35.16271,149.12956,,,0,,,,
6127,6127,Horse Park Dr opp Katherine Av, ,-35.16998,149.13913,,,0,,,,
6129,6129,Amaroo School Horse Park Dr, ,-35.16294,149.12944,,,0,,,,
6142,6142,Anthony Rolfe Av after Wizard St, ,-35.1859,149.14909,,,0,,,,
6141,6141,Anthony Rolfe Av after Eva West St, ,-35.18503,149.14565,,,0,,,,
6146,6146,Shirley Smith HS, ,-35.21027,149.15637,,,0,,,,
6145,6145,Anthony Rolfe Av before Rosanna St, ,-35.18564,149.14937,,,0,,,,
6148,6148,Langtree Cr opp 1st Cocoparra Cr, ,-35.20526,149.10968,,,0,,,,
6140,6140,Anthony Rolfe Av at Hammer St, ,-35.18529,149.14539,,,0,,,,
6153,6153,Harrison School Wimmera St SSO, ,-35.19907,149.15103,,,0,,,,
6152,6152,Langtree Cr after Fergus St, ,-35.20397,149.11424,,,0,,,,
6155,6155,Bimberi Centre, ,-35.22263,149.15614,,,0,,,,
6154,6154,Katherine Av opp Amaroo Shops, ,-35.16447,149.13059,,,0,,,,
6157,6157,Langtree Cr after Geegeela St, ,-35.20504,149.11391,,,0,,,,
6156,6156,Kaleen PS School Grounds SSO, ,-35.22464,149.11316,,,0,,,,
6159,6159,Nullarbor Av before Flemington Rd, ,-35.2007,149.14862,,,0,,,,
6158,6158,Nullarbor Av after Flemington Rd, ,-35.20089,149.14858,,,0,,,,
6149,6149,Langtree Cr after 2nd Cocoparra Cr, ,-35.20528,149.10902,,,0,,,,
7011,7011,Gungahlin Place Plt 3, ,-35.18535,149.13516,,,0,,,,
7010,7010,The Valley Av after Manning Clark Cr, ,-35.18834,149.14059,,,0,,,,
7012,7012,Gungahlin Place Plt 4, ,-35.18461,149.13495,,,0,,,,
6165,6165,Burgmann Anglican School Forde Campus, ,-35.17083,149.14385,,,0,,,,
7016,7016,Gungahlin Place Plt 4 Arrivals, ,-35.18461,149.13495,,,0,,,,
6162,6162,Mother Teresa PS Wimmera St SSO, ,-35.19519,149.15262,,,0,,,,
1708,1708,City Interchange Plt 7 Arrivals, ,-35.27789,149.13077,,,0,,,,
7009,7009,The Valley Av before Manning Clark Cr, ,-35.18837,149.14218,,,0,,,,
6175,6175,Amaroo Shops Katherine Av, ,-35.16514,149.13068,,,0,,,,
6186,6186,Oodgeroo Av before Brissenden St, ,-35.20028,149.14154,,,0,,,,
6185,6185,Manning Clark Cr after Barbara Jefferis St, ,-35.18999,149.14356,,,0,,,,
6188,6188,Nullarbor Av before Pinnacles St, ,-35.20131,149.15161,,,0,,,,
6187,6187,Oogeroo Av after Rolls St, ,-35.20039,149.1416,,,0,,,,
6189,6189,Nullarbor Av after Wimmera St, ,-35.20118,149.15144,,,0,,,,
6180,6180,Oodgeroo Av before Kilmeny Cl, ,-35.1987,149.14423,,,0,,,,
6182,6182,Manning Clark Cr before Whitington St, ,-35.19313,149.14574,,,0,,,,
6181,6181,Oodgeroo Av after Nullarbor Av, ,-35.19898,149.14394,,,0,,,,
6184,6184,Manning Clark Cr opp Barbara Jefferis St, ,-35.18999,149.1434,,,0,,,,
6183,6183,Manning Clark Cr before Alice Crist St, ,-35.19304,149.14597,,,0,,,,
1723,1723,City Interchange Arrivals, ,-35.27855,149.1306,,,0,,,,
1721,1721,City Interchange Plt 11 Arrivals, ,-35.27933,149.13042,,,0,,,,
1729,1729,Anthony Rolfe Av after Waghorn St, ,-35.18502,149.1546,,,0,,,,
6199,6199,Bettong Av before Dragon St, ,-35.19312,149.16354,,,0,,,,
6191,6191,Oodgeroo Av before Marie Pitt St, ,-35.19611,149.14571,,,0,,,,
6190,6190,Castleton Cr before Finlay Pl, ,-35.4117,149.11388,,,0,,,,
6193,6193,Anthony Rolfe Av after Horse Park Dr, ,-35.18504,149.15512,,,0,,,,
6192,6192,Oodgeroo Av before Jocelyn Brown St, ,-35.19666,149.14589,,,0,,,,
0402,0402,MacFarlane Burnet Av before Hollows Cct, ,-35.21284,149.0042,,,0,,,,
0403,0403,MacFarlane Burnet Av after Hollows Cct, ,-35.21267,149.00401,,,0,,,,
0401,0401,MacFarlane Burnet Av after 1st Eccles Cct, ,-35.21606,149.00305,,,0,,,,
1739,1739,Thirriwirri St after Allawoona St, ,-35.23433,149.08627,,,0,,,,
1738,1738,Thirriwirri St before Allawoona St, ,-35.23435,149.08653,,,0,,,,
0406,0406,MacFarlane Burnet Av opp Constance Stone St, ,-35.20929,149.00298,,,0,,,,
1737,1737,Thirriwirri St opp UC Public Hospital, ,-35.23376,149.08109,,,0,,,,
1736,1736,UC Public Hospital Thirriwirri St, ,-35.23366,149.08194,,,0,,,,
0404,0404,MacFarlane Burnet Av before De Gruchy Pl, ,-35.2162,149.00314,,,0,,,,
0405,0405,MacFarlane Burnet Av after Constance Stone St, ,-35.20934,149.00322,,,0,,,,
1743,1743,Lyneham PS Brigalow St, ,-35.25055,149.12607,,,0,,,,
1742,1742,St Monicas PS Moynihan St, ,-35.21362,149.06105,,,0,,,,
1741,1741,Drakeford Dr before Isabella Dr, ,-35.42096,149.07665,,,0,,,,
1740,1740,Drakeford Dr after Athllon Dr, ,-35.42012,149.07593,,,0,,,,
1749,1749,Noorooma St before Ellerston Av, ,-35.42882,149.0883,,,0,,,,
2601,2601,Canberra Hospital Bateson Rd, ,-35.34596,149.10054,,,0,,,,
2600,2600,Bateson Rd opp Canberra Hospital, ,-35.34765,149.10045,,,0,,,,
2609,2609,Southlands Shops Athllon Dr, ,-35.36491,149.09262,,,0,,,,
2604,2604,Bateson Rd before Canberra Hospital, ,-35.34869,149.10271,,,0,,,,
1770,1770,Barrier St before Pirie St, ,-35.32645,149.1682,,,0,,,,
2614,2614,83 - 85 Gladstone St, ,-35.32201,149.17935,,,0,,,,
1766,1766,Barrier St before Ipswich St, ,-35.32623,149.16751,,,0,,,,
2613,2613,Gladstone St before Cessnock St, ,-35.3232,149.1729,,,0,,,,
2610,2610,Athllon Dr opp Southlands Shops, ,-35.36334,149.09229,,,0,,,,
2617,2617,Bateson Rd after Canberra Hospital, ,-35.3486,149.1028,,,0,,,,
2616,2616,Gladstone St opp Albany St, ,-35.32537,149.18365,,,0,,,,
1768,1768,Barrier St opp Isa St, ,-35.32769,149.17023,,,0,,,,
2615,2615,127 Gladstone St, ,-35.32402,149.18239,,,0,,,,
4804,4804,North Canberra Hospital Haydon Dr, ,-35.25325,149.08673,,,0,,,,
1778,1778,Langton Cr after Newlands St, ,-35.29945,149.12741,,,0,,,,
1777,1777,Langton Cr before King Edward Tce, ,-35.29893,149.1272,,,0,,,,
4805,4805,Canopus Cr before Chuculba Cr, ,-35.21023,149.09041,,,0,,,,
1776,1776,Battye St opp CIT Bruce, ,-35.24647,149.09697,,,0,,,,
4806,4806,Canopus Cr after Chuculba Cr, ,-35.21031,149.09055,,,0,,,,
2623,2623,Newcastle St after Wollongong St, ,-35.32888,149.1783,,,0,,,,
4807,4807,Copland Dr Spence Terminus, ,-35.2007,149.06859,,,0,,,,
4808,4808,Mirrabei Dr opp 2nd Paul Coe Cr, ,-35.17747,149.12428,,,0,,,,
4809,4809,Hirschfeld Cr Macgregor PS SSO, ,-35.21321,149.01265,,,0,,,,
1772,1772,Newcastle St after Lyell St, ,-35.32656,149.17458,,,0,,,,
1771,1771,Barrier St before Isa St, ,-35.32777,149.17061,,,0,,,,
4803,4803,Haydon Dr opp North Canberra Hospital, ,-35.25256,149.08694,,,0,,,,
1792,1792,Summerland Cct after Mason St, ,-35.38544,149.07324,,,0,,,,
1791,1791,Summerland Cct after Mannheim St, ,-35.38538,149.07332,,,0,,,,
1790,1790,Anthony Rolfe Av after Gundaroo Rd, ,-35.18225,149.12927,,,0,,,,
1304,1304,Summerland Cct after Livingston Av, ,-35.39017,149.07349,,,0,,,,
1303,1303,Summerland Cct before 2nd Kingsmill St, ,-35.39003,149.07355,,,0,,,,
2634,2634,Canberra Av after Monaro Hwy, ,-35.33046,149.16115,,,0,,,,
1302,1302,Summerland Cct before 1st Kingsmill St, ,-35.39098,149.0715,,,0,,,,
4819,4819,CIT Bruce Haydon Dr, ,-35.24934,149.09013,,,0,,,,
1301,1301,Summerland Cct after Vanzetti Cr, ,-35.3911,149.07158,,,0,,,,
1300,1300,Namadgi School O'Halloran Cct, ,-35.39258,149.06821,,,0,,,,
4810,4810,Murranji St opp Alexandria St, ,-35.24221,149.03276,,,0,,,,
4811,4811,Murranji St before Alexandria St, ,-35.24189,149.03301,,,0,,,,
4814,4814,Gold Creek HS Kelleway Av, ,-35.18026,149.09323,,,0,,,,
2650,2650,Athllon Dr after Shea St, ,-35.35128,149.0907,,,0,,,,
2647,2647,Namatjira Dr before Badimara St, ,-35.3534,149.0526,,,0,,,,
4826,4826,St Matthew's PS Belconnen Way, ,-35.2416,149.04338,,,0,,,,
2646,2646,Namatjira Dr after Hindmarsh Dr, ,-35.34711,149.05716,,,0,,,,
4827,4827,Macnaughton St before Gore St, ,-35.22977,149.01769,,,0,,,,
4829,4829,Koscuiszko Av opp Palmerston Shops, ,-35.19778,149.11882,,,0,,,,
2643,2643,Gawler Cr after Deakin Shops, ,-35.31419,149.10906,,,0,,,,
2642,2642,Gawler Cr before Deakin Shops, ,-35.31427,149.10883,,,0,,,,
4820,4820,Ellenborough St opp Daintree Cr, ,-35.23074,149.11307,,,0,,,,
4821,4821,Ellenborough St before Maribyrnong Av, ,-35.23079,149.11296,,,0,,,,
1319,1319,Wheeler Cr before Wanniassa HS, ,-35.3942,149.08437,,,0,,,,
4823,4823,Hawker Shops Belconnen Way, ,-35.24186,149.04346,,,0,,,,
4824,4824,Belconnen Way opp Chewings St, ,-35.24098,149.03879,,,0,,,,
4825,4825,Belconnen Way before Chewings St, ,-35.24078,149.03871,,,0,,,,
2661,2661,Sheppard St after Johns Pl, ,-35.38884,149.17033,,,0,,,,
1327,1327,Forlonge St after Fincham Cr, ,-35.40105,149.08127,,,0,,,,
1326,1326,Fincham Cr after 1st DeGraves Cr, ,-35.3989,149.08052,,,0,,,,
2657,2657,Sheppard St after 2nd Raws Cr, ,-35.39283,149.1646,,,0,,,,
1325,1325,Fincham Cr before Stutt St, ,-35.39861,149.08031,,,0,,,,
4839,4839,Kingsford Smith Dr opp Companion Cr, ,-35.21241,149.04779,,,0,,,,
1324,1324,Fincham Cr after Wheeler Cr, ,-35.3963,149.07913,,,0,,,,
2655,2655,Beasley St opp Wilkins St, ,-35.37172,149.09871,,,0,,,,
1323,1323,Fincham Cr after Morrissey St, ,-35.39616,149.0789,,,0,,,,
2654,2654,Beasley St after Marshall St, ,-35.37115,149.10072,,,0,,,,
1322,1322,Wheeler Cr opp St Anthonys PS, ,-35.39498,149.07994,,,0,,,,
2653,2653,Athllon Dr 2nd after Beasley St, ,-35.37577,149.09322,,,0,,,,
2652,2652,Athllon Dr after Beasley St, ,-35.37128,149.09267,,,0,,,,
1321,1321,Wheeler Cr after Wanniassa HS, ,-35.39428,149.08498,,,0,,,,
2651,2651,Athllon Dr opp Shea St, ,-35.35126,149.09103,,,0,,,,
1320,1320,St Anthonys PS Wheeler Cr, ,-35.39489,149.08002,,,0,,,,
4830,4830,Holy Spirit PS Plt 1, ,-35.18064,149.1015,,,0,,,,
1328,1328,Forlonge St before Gair Pl, ,-35.40141,149.08093,,,0,,,,
4836,4836,Anthony Rolfe Av before Gundaroo Rd, ,-35.18271,149.12958,,,0,,,,
4850,4850,Gurrang Av after Deumonga Ct, ,-35.17182,149.11404,,,0,,,,
1341,1341,Drakeford Dr after Boddington Cr, ,-35.37734,149.0562,,,0,,,,
2672,2672,Ainsworth St before Horbury St, ,-35.35202,149.0938,,,0,,,,
1340,1340,Sternberg Cr after Comrie St, ,-35.4017,149.09868,,,0,,,,
2671,2671,Ainsworth St opp Hobury St, ,-35.35204,149.09401,,,0,,,,
2670,2670,Chapman PS Streeton Dr, ,-35.35477,149.04217,,,0,,,,
2669,2669,Streeton Dr opp Chapman PS, ,-35.35491,149.0425,,,0,,,,
1338,1338,Sternberg Cr after Whiteman St, ,-35.40104,149.0952,,,0,,,,
4848,4848,Amagula Av after Gula Pl, ,-35.17672,149.11351,,,0,,,,
1337,1337,Sternberg Cr before Houston St, ,-35.40235,149.09273,,,0,,,,
4849,4849,Gurrang Av opp Saunders St, ,-35.17313,149.11455,,,0,,,,
1336,1336,Sternberg Cr opp Whiteman Cr, ,-35.4012,149.09499,,,0,,,,
1335,1335,Sternberg Cr opp Houston St, ,-35.40239,149.0928,,,0,,,,
2663,2663,Sheppard St before Arnott St, ,-35.38624,149.17343,,,0,,,,
4841,4841,Plimsoll Dr before 2nd Bott Cr, ,-35.16335,149.09808,,,0,,,,
4842,4842,Plimsoll Dr before Ronald Walker St, ,-35.16244,149.09836,,,0,,,,
4843,4843,Whitrod Av after Kowalski St, ,-35.15952,149.10133,,,0,,,,
4844,4844,Whitrod Av after McGovern St, ,-35.15964,149.10092,,,0,,,,
4845,4845,Amagula Av before 1st Murrung Cr, ,-35.18086,149.11252,,,0,,,,
4846,4846,Plimsoll Dr after Skermer St, ,-35.16676,149.09624,,,0,,,,
1339,1339,Sternberg Cr after Langdon Av, ,-35.40144,149.09825,,,0,,,,
4847,4847,Amagula Av before Mandurah Pl, ,-35.17915,149.11429,,,0,,,,
4860,4860,Hardwick Cr before Flack St, ,-35.22425,149.02051,,,0,,,,
1352,1352,Marconi Cr after Hutchison Cr, ,-35.3814,149.06558,,,0,,,,
1351,1351,Marconi Cr after 1st Lascelles Cct, ,-35.3817,149.06531,,,0,,,,
1350,1350,Marconi Cr after Inkster St, ,-35.37873,149.06549,,,0,,,,
2680,2680,Canberra Av after Nyrang St, ,-35.32582,149.15358,,,0,,,,
1349,1349,Marconi Cr after 2nd Lascelles Cct, ,-35.37868,149.06535,,,0,,,,
4859,4859,Hardwick Cr after Powell St, ,-35.22427,149.02028,,,0,,,,
1348,1348,Taylor PS Marconi Cr, ,-35.37774,149.06406,,,0,,,,
2678,2678,Canberra Av before Mildura St, ,-35.32646,149.15518,,,0,,,,
1347,1347,Marconi Cr opp Taylor PS, ,-35.37761,149.06403,,,0,,,,
1346,1346,Marconi Cr after Wyselaskie Cct, ,-35.37827,149.0601,,,0,,,,
2677,2677,Dixon Dr before 2nd Burrinjuck Cr, ,-35.33359,149.03891,,,0,,,,
2676,2676,Dixon Dr before Blackwood Tce, ,-35.33366,149.03902,,,0,,,,
1345,1345,Marconi Cr before 2nd Harrington Cct, ,-35.37783,149.06064,,,0,,,,
1344,1344,Kambah Village Marconi Cr, ,-35.37914,149.05777,,,0,,,,
2675,2675,142 Beasley St, ,-35.37298,149.08894,,,0,,,,
2674,2674,Beasley St after Torrens Pl, ,-35.37292,149.08882,,,0,,,,
1343,1343,Marconi Cr opp Kambah Village, ,-35.37893,149.05763,,,0,,,,
2673,2673,Athllon Dr at Beasley St, ,-35.37259,149.09306,,,0,,,,
1342,1342,Drakeford Dr before Marconi Cr, ,-35.37735,149.05659,,,0,,,,
4851,4851,Gurrang Av before Wellington St, ,-35.17115,149.1118,,,0,,,,
4852,4852,Jabanungga Av opp 2nd Mundang Av, ,-35.1701,149.10292,,,0,,,,
4853,4853,Horse Park Dr before Yeend Av, ,-35.16724,149.10063,,,0,,,,
4855,4855,Jabanungga Av before 2nd Warabin Cr, ,-35.16841,149.10356,,,0,,,,
4857,4857,Plimsoll Dr before David Miller Cr, ,-35.16813,149.0956,,,0,,,,
4871,4871,Jabanungga Av after 1st Mundang Cr, ,-35.16956,149.10297,,,0,,,,
4872,4872,Jabanungga Av before 2nd Mundang Cr, ,-35.16813,149.10326,,,0,,,,
1363,1363,Wanniassa Hills PS Langdon Av, ,-35.39215,149.09578,,,0,,,,
2210,2210,Blackwood Tce opp Tyers St, ,-35.33606,149.04094,,,0,,,,
1362,1362,Langdon Av before Billson Pl, ,-35.39217,149.09369,,,0,,,,
1361,1361,Langdon Av before Carr Cr, ,-35.39257,149.09302,,,0,,,,
1360,1360,Langdon Av after Macbain St, ,-35.39232,149.08933,,,0,,,,
2690,2690,Namatjira Dr before Macnally St, ,-35.33935,149.05469,,,0,,,,
2207,2207,Blackwood Tce opp Holder Shops, ,-35.33668,149.04468,,,0,,,,
2206,2206,Cooleman Court Interchange Plt 2, ,-35.34246,149.05287,,,0,,,,
1359,1359,Langdon Av after Dyer Pl, ,-35.39241,149.08964,,,0,,,,
1358,1358,Summerland Cct opp 1st Lee-Steere Cr, ,-35.38752,149.07492,,,0,,,,
2205,2205,Cooleman Court Interchange Plt 1, ,-35.34237,149.05347,,,0,,,,
2689,2689,Wanniassa High School Grounds, ,-35.39474,149.08582,,,0,,,,
2688,2688,Athllon Dr after Parramatta St, ,-35.35404,149.09131,,,0,,,,
2204,2204,Parkinson St at Backler Pl, ,-35.34341,149.05577,,,0,,,,
1357,1357,Summerland Cct after 2nd Lee-Steere Cr, ,-35.38762,149.07504,,,0,,,,
1356,1356,Summerland Cct before 1st Gallagher St, ,-35.38502,149.07114,,,0,,,,
2203,2203,Parkinson St opp Backler Pl, ,-35.34328,149.05577,,,0,,,,
2687,2687,Athllon Dr opp Parramatta St, ,-35.35543,149.09161,,,0,,,,
2202,2202,Namatjira Dr after Conder St, ,-35.34227,149.05727,,,0,,,,
1355,1355,Summerland Cct before Mannheim St, ,-35.38491,149.07089,,,0,,,,
1354,1354,Summerland Cct opp Hutchison Cr, ,-35.38346,149.06749,,,0,,,,
2201,2201,Namatjira Dr before Conder St, ,-35.34058,149.05659,,,0,,,,
2200,2200,Namatjira Dr after Dillon Cl, ,-35.33927,149.05455,,,0,,,,
1353,1353,Summerland Cct before Hutchison Cr, ,-35.38337,149.06747,,,0,,,,
4864,4864,Burramarra Av after Jabanungga Av, ,-35.16024,149.10448,,,0,,,,
4865,4865,Burramarra Av before Kavangal Cct, ,-35.16021,149.10461,,,0,,,,
4867,4867,Ngunnawal PS Unaipon Av, ,-35.16883,149.11211,,,0,,,,
2209,2209,Blackwood Tce after Tyers St, ,-35.3361,149.04115,,,0,,,,
2208,2208,Holder Shops Blackwood Tce, ,-35.33656,149.0446,,,0,,,,
4880,4880,Kinsella St after 1st Nicholas St, ,-35.23594,149.028,,,0,,,,
4881,4881,Kinsella St before Findlay St, ,-35.23518,149.0284,,,0,,,,
4882,4882,Kinsella St before 2nd Nicholas St, ,-35.2379,149.02638,,,0,,,,
4883,4883,Kinsella St after Drake Brockman Dr, ,-35.23796,149.02614,,,0,,,,
2221,2221,Gawler Cr before Robe St, ,-35.31442,149.11047,,,0,,,,
1374,1374,Drakeford Dr after Soward Way, ,-35.40835,149.07307,,,0,,,,
2220,2220,Canberra Girls Grammar Senior School Gawler Cr, ,-35.31722,149.11334,,,0,,,,
1373,1373,Drakeford Dr after Taverner St, ,-35.40803,149.07353,,,0,,,,
1372,1372,Drakeford Dr before Taverner St, ,-35.40123,149.07457,,,0,,,,
1371,1371,Drakeford Dr after Mortimer Lewis Dr, ,-35.40258,149.07442,,,0,,,,
1370,1370,Langdon Av before Bussau Cl, ,-35.40002,149.09773,,,0,,,,
2218,2218,State Cir after Melbourne Av, ,-35.31117,149.12062,,,0,,,,
2217,2217,Melbourne Av after Canterbury Cr, ,-35.31218,149.12054,,,0,,,,
2216,2216,Melbourne Av after National Cct, ,-35.31383,149.11908,,,0,,,,
1369,1369,Langdon Av before Embling St, ,-35.40037,149.0974,,,0,,,,
2699,2699,Tharwa Dr after Box Hill Av, ,-35.45462,149.09099,,,0,,,,
1368,1368,Langdon Av before Longmore Cr, ,-35.39775,149.09741,,,0,,,,
1367,1367,Langdon Av before 2nd Brunton St, ,-35.39787,149.09741,,,0,,,,
2214,2214,Canberra Girls Grammar Senior School Melbourne Av, ,-35.31804,149.11533,,,0,,,,
2698,2698,Tharwa Dr before Box Hill Av, ,-35.45462,149.09132,,,0,,,,
2213,2213,Heysen St before Preston St, ,-35.33033,149.05525,,,0,,,,
940,940,Cohen St Interchange Plt 6, ,-35.24,149.06029,,,0,,,,
2697,2697,Tharwa Dr before Drakeford Dr, ,-35.4452,149.09326,,,0,,,,
1366,1366,Langdon Av after Kirkton St, ,-35.3961,149.09624,,,0,,,,
2212,2212,Heysen St opp Preston St, ,-35.33024,149.05525,,,0,,,,
2696,2696,Tharwa Dr after Drakeford Dr, ,-35.44526,149.09366,,,0,,,,
1365,1365,Langdon Av after Gaunson Cr, ,-35.39634,149.09639,,,0,,,,
941,941,Cohen St Interchange Plt 1, ,-35.23947,149.06032,,,0,,,,
942,942,Cohen St Interchange Plt 2, ,-35.2396,149.06023,,,0,,,,
2695,2695,Tom Roberts Av opp 1st Templestowe Av, ,-35.46568,149.10593,,,0,,,,
1364,1364,Langdon Av opp Wanniassa Hills PS, ,-35.39288,149.09656,,,0,,,,
4873,4873,Horse Park Dr after Arrabri St, ,-35.16721,149.10086,,,0,,,,
4874,4874,Mirrabei Dr before 1st Paul Coe Cr, ,-35.17754,149.12413,,,0,,,,
945,945,Dickson Interchange Plt 1, ,-35.25105,149.13493,,,0,,,,
4875,4875,Anne Clark Av before Linn St, ,-35.18197,149.10451,,,0,,,,
946,946,Dickson Interchange Plt 2, ,-35.25112,149.13443,,,0,,,,
4876,4876,Anne Clark Av before Lexcen Av, ,-35.18409,149.10484,,,0,,,,
4877,4877,Lexcen Av after Anne Clark Av, ,-35.18402,149.10635,,,0,,,,
4878,4878,Lexcen Av after Arthaldo Ct, ,-35.18352,149.10892,,,0,,,,
2219,2219,Gawler Cr opp Canberra Girls Grammar Senior School, ,-35.31714,149.11316,,,0,,,,
4892,4892,Belconnen Way opp Shumack St, ,-35.24321,149.04842,,,0,,,,
4893,4893,Belconnen Way after Shumack St, ,-35.24334,149.04813,,,0,,,,
4410,4410,Onslow St opp Latham Shops, ,-35.21924,149.03194,,,0,,,,
4894,4894,Moyes Cr before Southern Cross Dr, ,-35.22078,149.02164,,,0,,,,
2232,2232,Eyre St after Howitt St, ,-35.31544,149.14395,,,0,,,,
2231,2231,Schlich St before Musgrave St, ,-35.30443,149.10382,,,0,,,,
2230,2230,Schlich St before Hopetoun Cct, ,-35.3046,149.10631,,,0,,,,
2229,2229,Schlich St before Broome Cr, ,-35.30459,149.10467,,,0,,,,
2228,2228,Hopetoun Cct before Schlich St, ,-35.30518,149.10683,,,0,,,,
2227,2227,Hopetoun Cct before 1st Hampton Cct, ,-35.30742,149.10657,,,0,,,,
2226,2226,Hopetoun Cct before Loftus St, ,-35.30737,149.10648,,,0,,,,
1378,1378,Sainsbury St before Longmore Cr, ,-35.38717,149.09761,,,0,,,,
2225,2225,Hopetoun Cct after Weston St, ,-35.31026,149.10663,,,0,,,,
1377,1377,Sainsbury St after Longmore Cr, ,-35.38707,149.09744,,,0,,,,
2224,2224,Hopetoun Cct after 1st Hampton Cct, ,-35.30964,149.10663,,,0,,,,
1376,1376,Hindmarsh Dr after Ball St, ,-35.34874,149.08783,,,0,,,,
2223,2223,Hopetoun Cct after Grose St, ,-35.31306,149.10738,,,0,,,,
1375,1375,Athllon Dr before Reed St, ,-35.41816,149.06441,,,0,,,,
2222,2222,Hopetoun Cct before Grey St, ,-35.31308,149.10767,,,0,,,,
4400,4400,Dalley Cr before 2nd Gurner St, ,-35.21938,149.02696,,,0,,,,
4884,4884,Bingley Cr after Woodger Pl, ,-35.1934,149.05109,,,0,,,,
4401,4401,Dalley Cr opp 2nd Gurner St, ,-35.2193,149.02899,,,0,,,,
4885,4885,Bingley Cr opp Wickens Pl, ,-35.19344,149.05084,,,0,,,,
956,956,Cohen St Interchange Arrivals, ,-35.23999,149.06027,,,0,,,,
4402,4402,Dalley Cr before 1st Gurner St, ,-35.21943,149.0291,,,0,,,,
4886,4886,Bingley Cr opp Bazley St, ,-35.19218,149.05318,,,0,,,,
4887,4887,Bingley Cr before Bazley St, ,-35.19239,149.05388,,,0,,,,
4888,4888,Tillyard opp Fraser East Terminus, ,-35.19082,149.04556,,,0,,,,
959,959,Cohen St Interchange, ,-35.2398,149.06032,,,0,,,,
4889,4889,Fraser East Terminus Tillyard Dr, ,-35.19008,149.04648,,,0,,,,
4420,4420,Krefft St before Barnard Cct, ,-35.22479,149.04355,,,0,,,,
4421,4421,Krefft St after 2nd Ennor Cr, ,-35.22584,149.04581,,,0,,,,
2240,2240,Nemarang Cr opp Larakia St, ,-35.35193,149.06397,,,0,,,,
4419,4419,Krefft St opp Barnard Cct, ,-35.22471,149.04364,,,0,,,,
2239,2239,Cunningham St before Spinifex St SSO, ,-35.31777,149.15097,,,0,,,,
2238,2238,Sandalwood St after Spinifex St SSO, ,-35.3162,149.15117,,,0,,,,
2237,2237,Cunningham St opp Parbery St SSO, ,-35.31763,149.14917,,,0,,,,
2235,2235,Wentworth Av before Dawes St, ,-35.31709,149.14554,,,0,,,,
2234,2234,Wentworth Av after Dawes St, ,-35.31736,149.14632,,,0,,,,
2233,2233,Wentworth Av after Giles St, ,-35.3143,149.1445,,,0,,,,
4895,4895,Moyes Cr after Postle Cct, ,-35.221,149.02174,,,0,,,,
4411,4411,Latham Shops Onslow St, ,-35.21914,149.03209,,,0,,,,
4896,4896,Starke St opp Kingsford Smith School, ,-35.2284,149.01968,,,0,,,,
4412,4412,Onslow St opp Latham PS, ,-35.22065,149.03403,,,0,,,,
4897,4897,Ashkanasy Cr opp 2nd Pitcairn St, ,-35.21044,149.06979,,,0,,,,
4413,4413,Latham PS Onslow St, ,-35.22041,149.03389,,,0,,,,
4898,4898,Ashkanasy Cr after 1st Pitcairn St, ,-35.21039,149.06967,,,0,,,,
4414,4414,O'Loghlen St after 1st Chambers St, ,-35.22048,149.03734,,,0,,,,
4415,4415,O'Loghlen St after 1st Stretton Cr, ,-35.22029,149.03731,,,0,,,,
4899,4899,Kerrigan St before Traeger St, ,-35.18924,149.02641,,,0,,,,
4416,4416,O'Loghlen St before 2nd Milford St, ,-35.22153,149.03871,,,0,,,,
4417,4417,Krefft St before 1st Ennor Cr, ,-35.22226,149.04276,,,0,,,,
4418,4418,Krefft St opp 2nd Ennor Cr, ,-35.22228,149.04262,,,0,,,,
4430,4430,Ratcliffe Cr opp Connah St, ,-35.22769,149.05592,,,0,,,,
4431,4431,Ratcliffe Cr after 1st Lightfoot Cr, ,-35.23058,149.0553,,,0,,,,
4432,4432,Ratcliffe Cr before Woolnough St, ,-35.23029,149.05542,,,0,,,,
2254,2254,National Cct after Sydney Av, ,-35.31187,149.13245,,,0,,,,
3101,3101,Boldrewood St before Barry Dr, ,-35.27237,149.12029,,,0,,,,
3100,3100,Boldrewood St after Froggatt St, ,-35.27097,149.11784,,,0,,,,
2251,2251,Nemarang Cr after Yiman St, ,-35.35253,149.06715,,,0,,,,
2249,2249,Nemarang Cr after Galibal St, ,-35.35232,149.06688,,,0,,,,
2248,2248,Albert Hall Commonwealth Av, ,-35.29778,149.12589,,,0,,,,
2247,2247,Commonwealth Av opp Albert Hall, ,-35.29789,149.1263,,,0,,,,
2246,2246,Parliament House Federation Mall Southbound, ,-35.30608,149.12701,,,0,,,,
2245,2245,Parliament House Federation Mall Northbound, ,-35.30553,149.12607,,,0,,,,
4422,4422,Krefft St opp 1st Ennor Cr, ,-35.22589,149.0454,,,0,,,,
4423,4423,Krefft St opp 1st Boswell Cr, ,-35.2254,149.04843,,,0,,,,
4424,4424,Krefft St before 2nd Boswell Cr, ,-35.22554,149.04845,,,0,,,,
4425,4425,Florey PS Krefft St, ,-35.22589,149.05141,,,0,,,,
4426,4426,Krefft St opp Florey PS, ,-35.22588,149.05122,,,0,,,,
4427,4427,Florey Shops Ratcliffe Cr, ,-35.22684,149.05458,,,0,,,,
4428,4428,Ratcliffe Cr opp Florey Shops, ,-35.22689,149.05437,,,0,,,,
4429,4429,Ratcliffe Cr after Connah St, ,-35.22782,149.0562,,,0,,,,
4440,4440,Shumack St opp Weetangera PS, ,-35.25138,149.04918,,,0,,,,
4441,4441,Weetangera Shops Shumack St, ,-35.24927,149.0493,,,0,,,,
4442,4442,Shumack St opp Weetangera Shops, ,-35.24939,149.04959,,,0,,,,
4443,4443,Gillespie St before Southwell St, ,-35.2472,149.04723,,,0,,,,
3112,3112,Miller St after Quandong St, ,-35.25731,149.11552,,,0,,,,
2265,2265,Garran PS Gilmore Cr, ,-35.34398,149.10161,,,0,,,,
2264,2264,Gilmore Cr opp Garran PS, ,-35.34403,149.10143,,,0,,,,
3111,3111,Miller St opp Hack St, ,-35.26072,149.1151,,,0,,,,
3110,3110,Miller St before Hack St, ,-35.26093,149.11494,,,0,,,,
2263,2263,Fairbairn Av after Truscott St, ,-35.28525,149.16184,,,0,,,,
2262,2262,Fairbairn Av after Mount Ainslie Dr, ,-35.28529,149.16238,,,0,,,,
2261,2261,Fairbairn Av before Creswell St, ,-35.2832,149.15422,,,0,,,,
3109,3109,Miller St before Faunce Cr, ,-35.26416,149.11453,,,0,,,,
3108,3108,Miller St at Cockle St, ,-35.26469,149.11433,,,0,,,,
3107,3107,Miller St after Syme Cr, ,-35.26706,149.11408,,,0,,,,
2259,2259,Barton Bus Stn Plt 2, ,-35.30559,149.13304,,,0,,,,
3106,3106,Miller St after Hobbs St, ,-35.26676,149.114,,,0,,,,
2258,2258,Barton Bus Stn Plt 1, ,-35.30608,149.13315,,,0,,,,
3105,3105,Boldrewood St before Spencer St, ,-35.2695,149.11556,,,0,,,,
3104,3104,Boldrewood St before David St, ,-35.26896,149.11485,,,0,,,,
2257,2257,National Cct after Darling St, ,-35.30993,149.13321,,,0,,,,
2256,2256,National Cct before Bourke St, ,-35.31089,149.13315,,,0,,,,
3103,3103,Boldrewood St before Froggatt St, ,-35.27071,149.11758,,,0,,,,
2255,2255,National Cct before Sydney Av, ,-35.31213,149.1324,,,0,,,,
3102,3102,Boldrewood St after Ridley St, ,-35.26994,149.1161,,,0,,,,
4433,4433,Ratcliffe Cr opp 2nd Challinor Cr, ,-35.23281,149.05461,,,0,,,,
4434,4434,Ratcliffe Cr before 2nd Challinor Cr, ,-35.23185,149.05449,,,0,,,,
4435,4435,Ratcliffe Cr after Southern Cross Dr, ,-35.23352,149.05423,,,0,,,,
4437,4437,Shumack St after Harcourt St, ,-35.25372,149.05165,,,0,,,,
4438,4438,Shumack St before 2nd Abernethy St, ,-35.25367,149.05183,,,0,,,,
4439,4439,Weetangera PS Shumack St, ,-35.25084,149.04895,,,0,,,,
4450,4450,Beetaloo St opp Bonrook St, ,-35.24524,149.04079,,,0,,,,
4451,4451,Erldunda Cctbefore 2nd Woolner Cct, ,-35.25008,149.04057,,,0,,,,
4452,4452,Erldunda Cct opp 2nd Woolner Cct, ,-35.24942,149.04041,,,0,,,,
4453,4453,Erldunda Cct after 1st Ambalindum St, ,-35.25119,149.0376,,,0,,,,
4454,4454,Erldunda Cct before 2nd Kulgera St, ,-35.25109,149.03774,,,0,,,,
2276,2276,Alfred Deakin HS Kent St, ,-35.32494,149.09653,,,0,,,,
3123,3123,Mackennal St after Archibald St, ,-35.24543,149.12305,,,0,,,,
2275,2275,Kent St opp Alfred Deakin HS, ,-35.32536,149.09639,,,0,,,,
3122,3122,Mackennal St before Archibald St, ,-35.24576,149.12286,,,0,,,,
2274,2274,Kent St after Jensen St, ,-35.32938,149.09453,,,0,,,,
3121,3121,Mackennal St at Earle St, ,-35.24709,149.12276,,,0,,,,
2273,2273,Kent St before Birdwood St, ,-35.32961,149.09457,,,0,,,,
3120,3120,Mackennal St before Earle St, ,-35.24782,149.12251,,,0,,,,
2272,2272,Kent St opp Hughes Shops, ,-35.33313,149.09503,,,0,,,,
2271,2271,Kitchener St opp Goble St, ,-35.33388,149.09787,,,0,,,,
2270,2270,Kitchener St before Goble St, ,-35.334,149.09834,,,0,,,,
3119,3119,Mackennal St before Wattle St, ,-35.24896,149.12174,,,0,,,,
3118,3118,Miller St before Wattle St, ,-35.24964,149.12045,,,0,,,,
3117,3117,Miller St after Swainsona St, ,-35.25069,149.11894,,,0,,,,
3116,3116,Miller St after Merrit Pl, ,-35.25106,149.11819,,,0,,,,
2269,2269,Kitchener St before Birdwood St, ,-35.33519,149.10001,,,0,,,,
2268,2268,Kitchener St after McNicoll St, ,-35.33596,149.10068,,,0,,,,
3115,3115,Miller St after Scrivener St, ,-35.25372,149.11607,,,0,,,,
3114,3114,Miller St after Nardoo Cr, ,-35.25342,149.11612,,,0,,,,
2267,2267,Kitchener St before Lynch St, ,-35.33815,149.10223,,,0,,,,
2266,2266,Kitchener St before 1st Gilmore Cr, ,-35.33828,149.10248,,,0,,,,
3113,3113,Miller St before Banksia St, ,-35.25698,149.11569,,,0,,,,
4444,4444,Gillespie St before 2nd Morton St, ,-35.24698,149.04733,,,0,,,,
4445,4445,Gillespie St before Springvale Dr, ,-35.24541,149.04483,,,0,,,,
4446,4446,Gillespie St before 1st Morton St, ,-35.24538,149.04503,,,0,,,,
4447,4447,Hawker Pl opp Hawker Shops, ,-35.24361,149.0433,,,0,,,,
4448,4448,Hawker Shops Hawker Pl, ,-35.24371,149.04385,,,0,,,,
4449,4449,Beetaloo St after Bonrook St, ,-35.24526,149.04088,,,0,,,,
4465,4465,McGinness St after Ross Smith Cr, ,-35.23349,149.04253,,,0,,,,
2287,2287,Deakin Shops Hopetoun Cct, ,-35.31488,149.10838,,,0,,,,
2286,2286,Macgregor St opp Deakin Shops, ,-35.31546,149.10831,,,0,,,,
3132,3132,Dickson Shops Cowper St, ,-35.25048,149.14059,,,0,,,,
2285,2285,Macgregor St after De Chair St, ,-35.31627,149.10521,,,0,,,,
2284,2284,Macgregor St before Stradbroke St, ,-35.31632,149.10565,,,0,,,,
2283,2283,Macgregor St before Nathan St, ,-35.31695,149.10201,,,0,,,,
3130,3130,Cossington Smith Cr after Piguenit Cl, ,-35.23685,149.12399,,,0,,,,
2282,2282,Macgregor St after Cairns St, ,-35.31718,149.10143,,,0,,,,
2281,2281,Strickland Cr before Macgregor St, ,-35.31842,149.09901,,,0,,,,
2280,2280,Strickland Cr before Kent St, ,-35.31847,149.09885,,,0,,,,
3129,3129,Cossington Smith Cr before Fairweather Cct, ,-35.23992,149.12178,,,0,,,,
3128,3128,North Lyneham Shops Cossington Smith Cr, ,-35.24116,149.12428,,,0,,,,
3127,3127,Archibald St before Ashton St, ,-35.24533,149.12605,,,0,,,,
2279,2279,Kent St opp Canberra Private Hospital, ,-35.31934,149.09831,,,0,,,,
3126,3126,Archibald St before Mouat St, ,-35.2453,149.1265,,,0,,,,
2278,2278,Canberra Private Hospital Kent St, ,-35.31984,149.09818,,,0,,,,
3125,3125,Archibald St after Ashton St, ,-35.24516,149.12463,,,0,,,,
2277,2277,Royal Life Saving House Kent St, ,-35.32232,149.09773,,,0,,,,
3124,3124,Archibald St opp Ashton St, ,-35.24509,149.12501,,,0,,,,
4455,4455,Erldunda Cct opp Hawker PS, ,-35.25039,149.03403,,,0,,,,
4456,4456,Hawker PS Erldunda Cct, ,-35.25079,149.03496,,,0,,,,
4457,4457,Erldunda Cct before Mataranka St, ,-35.24821,149.03212,,,0,,,,
4458,4458,Erldunda Cct after Tobermorey Pl, ,-35.24845,149.0323,,,0,,,,
2290,2290,Mawson Dr after Wilkins St, ,-35.36335,149.09653,,,0,,,,
4470,4470,Chewings St opp Petterd St, ,-35.23807,149.04193,,,0,,,,
4471,4471,Petterd St after Roseby St, ,-35.2392,149.04575,,,0,,,,
4472,4472,Petterd St after 2nd Hannaford St, ,-35.23928,149.04492,,,0,,,,
4473,4473,Petterd St after Halford Cr, ,-35.23953,149.04852,,,0,,,,
4474,4474,Petterd St after Herrgott St, ,-35.23969,149.04848,,,0,,,,
4475,4475,Page Shops Petterd St, ,-35.24011,149.05235,,,0,,,,
4476,4476,Petterd St opp Page Shops, ,-35.24029,149.05237,,,0,,,,
2298,2298,Streeton Dr before Bangalay Cr, ,-35.35069,149.04215,,,0,,,,
3145,3145,Cowper St after 1st Bonney St, ,-35.26437,149.14088,,,0,,,,
3144,3144,Cowper St opp All Saints Church, ,-35.26517,149.13927,,,0,,,,
2297,2297,Ainsworth St opp Canberra Christian School, ,-35.35654,149.09741,,,0,,,,
2296,2296,Canberra Christian School Ainsworth St, ,-35.35609,149.09769,,,0,,,,
3143,3143,Cowper St after Limestone Av, ,-35.26538,149.1385,,,0,,,,
3142,3142,Torrens St after Ipima St, ,-35.26757,149.13509,,,0,,,,
2295,2295,Ainsworth St opp Mawson PS, ,-35.35988,149.09763,,,0,,,,
2294,2294,Mawson PS Ainsworth St, ,-35.3599,149.09784,,,0,,,,
3141,3141,Ipima St after Torrens St, ,-35.26635,149.13606,,,0,,,,
3140,3140,Torrens St after Henty St, ,-35.26988,149.13474,,,0,,,,
2293,2293,Ainsworth St before Mawson Dr, ,-35.36145,149.09872,,,0,,,,
2292,2292,Yambina Cr after Wirangu Pl, ,-35.35655,149.05963,,,0,,,,
2291,2291,Kent St opp Royal Life Saving House, ,-35.32212,149.0979,,,0,,,,
3139,3139,Torrens St before Ipima St, ,-35.26798,149.13492,,,0,,,,
3137,3137,Torrens St after Girrahween St, ,-35.26996,149.1346,,,0,,,,
2289,2289,Yambina Cr after Nemarang Cr, ,-35.35655,149.05974,,,0,,,,
2288,2288,Gawler Cr opp Robe St, ,-35.31478,149.11118,,,0,,,,
4466,4466,McGinness St after Keith St, ,-35.23343,149.04222,,,0,,,,
4467,4467,Chewings St opp McGinness St, ,-35.23643,149.04381,,,0,,,,
4468,4468,Chewings St before McGinness St, ,-35.23627,149.04378,,,0,,,,
4469,4469,Chewings St before Petterd St, ,-35.23823,149.04201,,,0,,,,
4480,4480,Cohen St Interchange Plt 5, ,-35.24012,149.05969,,,0,,,,
4482,4482,Lance Hill Av before 2nd Evelyn Owen Cr, ,-35.19931,149.01958,,,0,,,,
4483,4483,Lance Hill Av before 1st Alarmon Cr, ,-35.19931,149.01949,,,0,,,,
4484,4484,Lance Hill Av opp 2nd Alarmon Cr, ,-35.19832,149.02046,,,0,,,,
4485,4485,Lance Hill Av after 2nd Alarmon Cr, ,-35.19825,149.02045,,,0,,,,
4486,4486,Archdall St before Hugh McKay Cr, ,-35.19988,149.01566,,,0,,,,
4003,4003,Canberra HS Bowman St SSO, ,-35.25167,149.07207,,,0,,,,
4487,4487,Tillyard Dr before Reuther St, ,-35.19492,149.04161,,,0,,,,
3150,3150,Cowper St before Suttor St, ,-35.25982,149.14182,,,0,,,,
3149,3149,Cowper St at 2nd Bonney St, ,-35.25959,149.14148,,,0,,,,
3148,3148,Cowper St at Wakefield Av, ,-35.26147,149.14198,,,0,,,,
3147,3147,Cowper St before Wakefield Av, ,-35.26201,149.14182,,,0,,,,
3146,3146,Cowper St after Cox St, ,-35.26363,149.14157,,,0,,,,
2299,2299,Streeton Dr after Darwinia Tce, ,-35.3525,149.0416,,,0,,,,
4477,4477,Ogilby Cr before Burkitt St, ,-35.23874,149.05473,,,0,,,,
4478,4478,Ogilby Cr after Kirchauff St, ,-35.23907,149.05421,,,0,,,,
4479,4479,Cohen St Interchange Plt 3, ,-35.23977,149.0605,,,0,,,,
4491,4491,Florey Dr after 1st Herron Cr, ,-35.20833,149.02701,,,0,,,,
4492,4492,Florey Dr after Handcock Cr, ,-35.20846,149.02686,,,0,,,,
4493,4493,Bindubi St opp Canberra HS SSO, ,-35.2528,149.07497,,,0,,,,
4010,4010,Baldwin Dr before Ginninderra Dr, ,-35.23179,149.09305,,,0,,,,
4494,4494,Canberra HS Bindubi St, ,-35.25179,149.07504,,,0,,,,
4011,4011,Maribyrnong Av after Baldwin Dr, ,-35.22986,149.09665,,,0,,,,
4495,4495,Bindubi St after Bindel St SSO, ,-35.25459,149.07425,,,0,,,,
4012,4012,Baldwin Dr after 2nd Maribyrnong Av, ,-35.23001,149.09454,,,0,,,,
4496,4496,Bindubi St before Redfern St SSO, ,-35.25461,149.07401,,,0,,,,
4013,4013,Maribyrnong Av before Baldwin Dr, ,-35.23018,149.09673,,,0,,,,
4497,4497,Bindubi St opp Cross St SSO, ,-35.25671,149.07376,,,0,,,,
4014,4014,Maribyrnong Av after 1st Diamantina Cr, ,-35.23176,149.09906,,,0,,,,
4498,4498,Bindubi St before Cross St SSO, ,-35.2566,149.07353,,,0,,,,
3167,3167,Watson Shops Windeyer St, ,-35.23916,149.1536,,,0,,,,
3166,3166,Windeyer St opp Watson Shops, ,-35.23929,149.15378,,,0,,,,
3165,3165,Windeyer St after Phillip Av, ,-35.24133,149.15079,,,0,,,,
3164,3164,Cowper St opp Dickson Shops, ,-35.25023,149.14084,,,0,,,,
3163,3163,Cowper St opp Daramalan College, ,-35.25262,149.1395,,,0,,,,
3162,3162,Cowper St before Hope St, ,-35.25417,149.13908,,,0,,,,
3161,3161,Cowper St after Hope St, ,-35.2544,149.13895,,,0,,,,
4490,4490,Tillyard Dr opp Barber Cr, ,-35.19711,149.04286,,,0,,,,
3159,3159,Cowper St after Sherbrooke St, ,-35.25782,149.14012,,,0,,,,
4488,4488,Tillyard Dr before Kerrigan St, ,-35.19516,149.04147,,,0,,,,
4005,4005,Haydon Dr opp Radford College, ,-35.24282,149.09076,,,0,,,,
4489,4489,Tillyard Dr before Spalding St, ,-35.19811,149.04463,,,0,,,,
6666,6666,Alexander Maconochie Centre, ,-35.37212,149.17001,,,0,,,,
4006,4006,Radford College College St, ,-35.24252,149.08855,,,0,,,,
4007,4007,Haydon Dr after University Dr, ,-35.2375,149.09079,,,0,,,,
4008,4008,Haydon Dr opp University Dr, ,-35.23783,149.09097,,,0,,,,
4009,4009,Baldwin Dr after Ginninderra Dr, ,-35.23182,149.09288,,,0,,,,
3170,3170,Knox St after 1st Higinbotham St, ,-35.24258,149.15869,,,0,,,,
4020,4020,Maribyrnong Av before Wakool Cct, ,-35.23119,149.1102,,,0,,,,
4021,4021,Maribyrnong Av after Ellenborough St, ,-35.23111,149.11052,,,0,,,,
6201,6201,Bettong Av opp Shingleback St, ,-35.18748,149.162,,,0,,,,
4022,4022,Maribyrnong Av opp Warrego Cct, ,-35.22948,149.11121,,,0,,,,
4023,4023,Maribyrnong Av after Warrego Cct, ,-35.22936,149.11137,,,0,,,,
6200,6200,Bettong Av before Hawksbill St, ,-35.19259,149.16399,,,0,,,,
6203,6203,Bettong Av before Gecko Way, ,-35.1833,149.15871,,,0,,,,
4024,4024,Maribyrnong Av after Campaspe Cct, ,-35.22694,149.11112,,,0,,,,
4025,4025,Maribyrnong Av after Greenough Cct, ,-35.22711,149.11127,,,0,,,,
6202,6202,Bettong Av after Shingleback St, ,-35.18767,149.16278,,,0,,,,
3178,3178,Antill St opp Kilduff St, ,-35.23094,149.16687,,,0,,,,
3177,3177,Old Watson Terminus Antill St, ,-35.23957,149.16522,,,0,,,,
3176,3176,Antill St opp Old Watson Terminus, ,-35.23965,149.16527,,,0,,,,
3175,3175,Antill St opp Fison St, ,-35.24103,149.16338,,,0,,,,
3174,3174,Antill St before Fison St, ,-35.2412,149.16336,,,0,,,,
3173,3173,Antill St after Knox St, ,-35.24277,149.16122,,,0,,,,
3172,3172,Antill St opp Knox St, ,-35.24291,149.16122,,,0,,,,
3171,3171,Knox St after 2nd Irvine St, ,-35.2423,149.15851,,,0,,,,
3169,3169,Knox St after 1st Irvine St, ,-35.23951,149.15572,,,0,,,,
3168,3168,Knox St at 2nd Higinbotham St, ,-35.23991,149.15595,,,0,,,,
4015,4015,Maribyrnong Av before 2nd Alberga St, ,-35.23213,149.0994,,,0,,,,
4499,4499,Bindubi St before Bandjalong Cr SSO, ,-35.25924,149.07367,,,0,,,,
4016,4016,Maribyrnong Av opp Gwydir Square, ,-35.23351,149.10286,,,0,,,,
4017,4017,Gwydir Square Maribyrnong Av, ,-35.23365,149.10272,,,0,,,,
4018,4018,Maribyrnong Av opp Daintree Cr, ,-35.23241,149.1079,,,0,,,,
4019,4019,Maribyrnong Av after Daintree Cr, ,-35.23257,149.10777,,,0,,,,
4030,4030,Maribyrnong Av opp 2nd Yarra St, ,-35.219,149.11087,,,0,,,,
4031,4031,Maribyrnong Av after 1st Yarra St, ,-35.21912,149.11107,,,0,,,,
4032,4032,80 Maribyrnong Av, ,-35.21772,149.10913,,,0,,,,
4033,4033,Maribyrnong Av before 2nd Onkaparinga Cr, ,-35.21755,149.10883,,,0,,,,
4034,4034,Maribyrnong Av before 2nd Staaten Cr, ,-35.2186,149.10513,,,0,,,,
4035,4035,Maribyrnong Av before 1st Onkaparinga Cr, ,-35.21843,149.10526,,,0,,,,
4036,4036,Kaleen Village Maribyrnong Av, ,-35.21945,149.10295,,,0,,,,
3189,3189,Brigalow St after Scrivener St, ,-35.25428,149.12141,,,0,,,,
3188,3188,Scrivener St after Karri St, ,-35.25613,149.12264,,,0,,,,
3187,3187,Scrivener St before Brigalow St, ,-35.2559,149.12196,,,0,,,,
3186,3186,Hovea St before Boronia Dr, ,-35.25826,149.12392,,,0,,,,
3185,3185,Hovea St after Macarthur Av, ,-35.25907,149.1237,,,0,,,,
3184,3184,Lyneham PS School Grounds SSO, ,-35.25127,149.12521,,,0,,,,
3179,3179,Antill St after Kilduff St, ,-35.23144,149.16672,,,0,,,,
4026,4026,Maribyrnong Av before Tyrell Cct, ,-35.22403,149.11092,,,0,,,,
4027,4027,Maribyrnong Av before Ashburton Cct, ,-35.22424,149.11104,,,0,,,,
6204,6204,Bettong Av after Pipistrelle St, ,-35.1832,149.15924,,,0,,,,
4028,4028,Maribyrnong Av before 1st Staaten Cr, ,-35.22124,149.11116,,,0,,,,
4029,4029,Maribyrnong Av after Moruya Cct, ,-35.22131,149.11128,,,0,,,,
4040,4040,Chuculba Cr before Baldwin Dr, ,-35.21851,149.09804,,,0,,,,
4041,4041,Chuculba Cr after Baldwin Dr, ,-35.21843,149.09795,,,0,,,,
4042,4042,Chuculba Cr opp Canopus Cr, ,-35.21621,149.09984,,,0,,,,
3190,3190,Brigalow St before Scrivener St, ,-35.25488,149.12109,,,0,,,,
4043,4043,Chuculba Cr after 1st Canopus Cr, ,-35.216,149.09978,,,0,,,,
4044,4044,Chuculba Cr before Lenehan St, ,-35.21375,149.10153,,,0,,,,
4045,4045,Chuculba Cr before 1st Spica St, ,-35.21373,149.10136,,,0,,,,
4046,4046,Chuculba Cr before 2nd Antares Cr, ,-35.21119,149.10204,,,0,,,,
4047,4047,Chuculba Cr opp 1st Antares Cr, ,-35.21122,149.1019,,,0,,,,
3199,3199,Madigan St opp Hackett Shops, ,-35.2471,149.16296,,,0,,,,
3198,3198,Madigan St before Antill St, ,-35.24469,149.1599,,,0,,,,
3197,3197,Madigan St after Antill St, ,-35.24464,149.16007,,,0,,,,
3196,3196,Antill St before Phillip Av, ,-35.24643,149.15631,,,0,,,,
3195,3195,Antill St after Phillip Av, ,-35.24641,149.15593,,,0,,,,
4037,4037,Maribyrnong Av opp Kaleen Village, ,-35.21927,149.10316,,,0,,,,
4051,4051,Chuculba Cr after Fornax St, ,-35.20892,149.09589,,,0,,,,
4052,4052,Chuculba Cr after Buriga St, ,-35.20972,149.09351,,,0,,,,
4053,4053,Chuculba Cr before 2nd Centaurus St, ,-35.20986,149.09348,,,0,,,,
4054,4054,Canopus Cr after Achernar Cl, ,-35.21259,149.09116,,,0,,,,
4055,4055,Canopus Cr at 1st Balamara St, ,-35.21268,149.09105,,,0,,,,
4056,4056,Canopus Cr opp Giralang PS, ,-35.21297,149.09418,,,0,,,,
4057,4057,Giralang PS Canopus Cr, ,-35.21294,149.09474,,,0,,,,
4058,4058,Canopus Cr after Fornax St, ,-35.21388,149.09668,,,0,,,,
4050,4050,Chuculba Cr after 2nd Mirrabucca Cr, ,-35.20893,149.09551,,,0,,,,
4048,4048,Chuculba Cr after Nyawi Pl, ,-35.21021,149.09952,,,0,,,,
4049,4049,92 Chuculba Cr, ,-35.21028,149.09938,,,0,,,,
8888,8888,Regatta Point Commonwealth Av, ,-35.29035,149.12752,,,0,,,,
4062,4062,John Cleland Cr opp 1st Tattersall Cr, ,-35.22622,149.05817,,,0,,,,
4063,4063,John Cleland Cr before 2nd Twelvetrees Cr, ,-35.22596,149.0585,,,0,,,,
4064,4064,Florey Shops John Cleland Cr, ,-35.22473,149.05499,,,0,,,,
4065,4065,John Cleland Cr opp Florey Shops, ,-35.22479,149.05515,,,0,,,,
4066,4066,John Cleland Cr opp 2nd Twelvetrees Cr, ,-35.22282,149.05489,,,0,,,,
4067,4067,John Cleland Cr before 1st Twelvetrees Cr, ,-35.22275,149.05502,,,0,,,,
4068,4068,John Cleland Cr before Ginninderra Dr, ,-35.22154,149.05434,,,0,,,,
4069,4069,John Cleland Cr after Ginninderra Dr, ,-35.22116,149.05434,,,0,,,,
4060,4060,Canopus Cr after Hirst Pl, ,-35.21597,149.09814,,,0,,,,
4061,4061,Canopus Cr after 1st Tucana St, ,-35.21596,149.09781,,,0,,,,
4059,4059,Canopus Cr after 2nd Tucana St, ,-35.21453,149.09656,,,0,,,,
4073,4073,Copland Dr opp Copland College, ,-35.21272,149.06071,,,0,,,,
4074,4074,Copland Dr opp Keenan St, ,-35.20975,149.06117,,,0,,,,
4075,4075,Copland Dr at Keenan St, ,-35.20974,149.06136,,,0,,,,
4076,4076,Copland Dr before 2nd McEachern Cr, ,-35.2082,149.06305,,,0,,,,
4077,4077,Copland Dr after Meagher Pl, ,-35.20837,149.06296,,,0,,,,
4078,4078,Alpen St after 1st Clifford Cr, ,-35.20631,149.06455,,,0,,,,
4079,4079,Alpen St after Baddeley Cr, ,-35.20626,149.0647,,,0,,,,
4070,4070,Copland Dr after Ginninderra Dr, ,-35.21877,149.05397,,,0,,,,
4071,4071,Copland Dr after Carlile St, ,-35.2186,149.05425,,,0,,,,
4072,4072,Copland College Copland Dr, ,-35.21243,149.0607,,,0,,,,
4084,4084,Baddeley Cr after 2nd Hancock St, ,-35.20062,149.06599,,,0,,,,
4085,4085,Baddeley Cr before Edmunds Pl, ,-35.20013,149.06583,,,0,,,,
4086,4086,Baddeley Cr after Blumental Pl, ,-35.19929,149.06335,,,0,,,,
4087,4087,Baddeley Cr before Crofts Cr, ,-35.19928,149.06281,,,0,,,,
4088,4088,Belconnen Way after Coulter Dr, ,-35.24375,149.05501,,,0,,,,
4089,4089,Kingsford Smith Dr after Magrath Cr, ,-35.19779,149.06059,,,0,,,,
1809,1809,Opp North Weston Park & Ride, ,-35.32259,149.05762,,,0,,,,
4080,4080,Baddeley Cr after Colborne Pl, ,-35.20486,149.06369,,,0,,,,
4081,4081,Baddeley Cr after Broadby Cl, ,-35.20505,149.06377,,,0,,,,
4082,4082,Baddeley Cr after 1st Hancock St, ,-35.20284,149.06528,,,0,,,,
4083,4083,Baddeley Cr after Garrard St, ,-35.20259,149.06567,,,0,,,,
1808,1808,Tuggeranong Interchange Plt 8, ,-35.41492,149.06563,,,0,,,,
1807,1807,Tuggeranong Interchange Plt 7, ,-35.41462,149.06538,,,0,,,,
1804,1804,Tuggeranong Interchange Plt 4, ,-35.41443,149.06546,,,0,,,,
1803,1803,Tuggeranong Interchange Plt 3, ,-35.41466,149.06563,,,0,,,,
1802,1802,North Weston Park & Ride, ,-35.32168,149.05829,,,0,,,,
1801,1801,Gungahlin Place Plt 3 Arrivals, ,-35.18535,149.13516,,,0,,,,
4095,4095,Clarey Cr at 2nd Healy St, ,-35.1968,149.06596,,,0,,,,
4096,4096,Clarey Cr at Dunkley Pl, ,-35.19666,149.06583,,,0,,,,
4097,4097,Clarey Cr before Boote St, ,-35.19769,149.06876,,,0,,,,
4098,4098,Clarey Cr before Scattergood Pl, ,-35.19784,149.06876,,,0,,,,
4099,4099,Owen Dixon Dr opp Clarey Cr, ,-35.19709,149.07054,,,0,,,,
4090,4090,Kingsford Smith Dr opp Magrath Cr, ,-35.19751,149.06059,,,0,,,,
4091,4091,Kingsford Smith Dr opp Spence Shops, ,-35.19478,149.06062,,,0,,,,
4092,4092,Spence Shops Kingsford Smith Dr, ,-35.19495,149.06073,,,0,,,,
4093,4093,Clarey Cr after Clark Cl, ,-35.19477,149.06377,,,0,,,,
4094,4094,Clarey Cr before O'Neill St, ,-35.19488,149.06374,,,0,,,,
1811,1811,Theodore Terminus Chippindall Cct, ,-35.45306,149.11856,,,0,,,,
1810,1810,Anketell St opp Lakeside Leisure Centre, ,-35.41228,149.06331,,,0,,,,
1816,1816,Barr Smith Av after Coombe St, ,-35.4288,149.07474,,,0,,,,
1815,1815,Barr Smith Av opp Coombe St, ,-35.42901,149.07459,,,0,,,,
1812,1812,Lanyon Marketplace Terminus South, ,-35.45635,149.09247,,,0,,,,
1821,1821,City West Marcus Clarke St, ,-35.2791,149.12557,,,0,,,,
1825,1825,IKEA Majura Rd, ,-35.29609,149.1877,,,0,,,,
1839,1839,Ashley Dr before Bugden Av, ,-35.41242,149.10277,,,0,,,,
1838,1838,Ashley Dr opp Bugden Av, ,-35.41334,149.10236,,,0,,,,
1837,1837,Ashley Dr after Erindale Dr, ,-35.40745,149.10272,,,0,,,,
1836,1836,Ashley Dr before Erindale Dr, ,-35.40762,149.10242,,,0,,,,
1841,1841,Ashley Dr after Isabella Dr, ,-35.42265,149.10352,,,0,,,,
1840,1840,Ashley Dr before Isabella Dr, ,-35.42411,149.10323,,,0,,,,
2700,2700,Atllon Dr before Dept of Human Services, ,-35.42224,149.06712,,,0,,,,
2713,2713,Athllon Dr before Rowland Rees Cr, ,-35.41743,149.06354,,,0,,,,
2719,2719,Soward Way before Scollay St, ,-35.41899,149.06755,,,0,,,,
2718,2718,Soward Way after Athllon Dr, ,-35.41948,149.06638,,,0,,,,
2717,2717,Jim Pike Av after 1st Charlton Cr, ,-35.46082,149.0782,,,0,,,,
4904,4904,Jabanunga Av after 1st Bindugan Cr, ,-35.16362,149.10442,,,0,,,,
4905,4905,Jabanunga Av after Yerradhang St, ,-35.16378,149.10422,,,0,,,,
4907,4907,Southern Cross Dr after 1st Starke St, ,-35.22307,149.02992,,,0,,,,
4908,4908,Southern Cross Dr before Chave St, ,-35.22166,149.02766,,,0,,,,
4909,4909,Southern Cross Dr after Dalley Cr, ,-35.22141,149.02774,,,0,,,,
1404,1404,Newman-Morris Cct after 1st Collocott Cr, ,-35.41346,149.07607,,,0,,,,
4914,4914,Horse Park Dr before Newlop St, ,-35.16989,149.09944,,,0,,,,
2735,2735,John Gorton Dr after Sculthorpe Av, ,-35.27295,149.04912,,,0,,,,
1403,1403,77 Newman-Morris Cct, ,-35.41099,149.07517,,,0,,,,
1402,1402,Newman-Morris Cct before 1st Singleton Cr, ,-35.41085,149.07506,,,0,,,,
1401,1401,Newman-Morris Cct before 1st Connibere Cr, ,-35.40722,149.07568,,,0,,,,
1400,1400,Newman-Morris Cct opp 2nd Connibere Cr, ,-35.40748,149.0757,,,0,,,,
4918,4918,Hoskins St before Lysaght St, ,-35.21392,149.13788,,,0,,,,
2731,2731,Kent St after Strickland Cr, ,-35.31715,149.09821,,,0,,,,
4919,4919,Hoskins St before Well Station Dr, ,-35.20856,149.1387,,,0,,,,
2730,2730,Kent St after Macartney Cr, ,-35.31701,149.0983,,,0,,,,
1409,1409,Learmonth Dr after Vansittart Cr, ,-35.40197,149.06087,,,0,,,,
4910,4910,Haydon Dr opp CIT Bruce, ,-35.24912,149.09004,,,0,,,,
1408,1408,Lakeside Leisure Centre Anketell St, ,-35.41215,149.06319,,,0,,,,
2739,2739,Sculthorpe Av before Saint Leon St, ,-35.27214,149.04703,,,0,,,,
1407,1407,Newman-Morris Cct before 2nd Maconochie Cr, ,-35.4133,149.07863,,,0,,,,
4911,4911,Wanganeen Av before Jandamarra St, ,-35.16851,149.11417,,,0,,,,
2738,2738,John Gorton Dr opp Hazel Hawke Av, ,-35.27957,149.04352,,,0,,,,
1406,1406,Newman-Morris Cct before 2nd Cuthbertson Cr, ,-35.41284,149.07938,,,0,,,,
1405,1405,Newman-Morris Cct opp 2nd Collocott Cr, ,-35.41354,149.07634,,,0,,,,
4913,4913,Horse Park Dr 2nd after Newlop St, ,-35.16905,149.09993,,,0,,,,
1415,1415,Vansittart Cr opp Pinkerton Cct, ,-35.39722,149.06406,,,0,,,,
1414,1414,Learmonth Dr before Athllon Dr, ,-35.40308,149.06352,,,0,,,,
1413,1413,Learmonth Dr after Athllon Dr, ,-35.40318,149.06335,,,0,,,,
2744,2744,Sculthorpe Av at Niland St, ,-35.27317,149.039,,,0,,,,
1412,1412,Vansittart Cr after 1st Ragless Cct, ,-35.40009,149.06247,,,0,,,,
2743,2743,Sculthorpe Av before Hazel Hawke Av, ,-35.27338,149.03865,,,0,,,,
2742,2742,Sculthorpe Av opp Maymuru Way, ,-35.27125,149.04276,,,0,,,,
1411,1411,Vansittart Cr after 1st Stieglitz Cct, ,-35.40015,149.06261,,,0,,,,
1410,1410,Learmonth Dr opp Vansittart Cr, ,-35.40208,149.06078,,,0,,,,
2741,2741,Sculthorpe Av before Churcher Cr, ,-35.27159,149.04227,,,0,,,,
2740,2740,Sculthorpe Av before Constable St, ,-35.27223,149.04738,,,0,,,,
4920,4920,Hoskins St before Vicars St, ,-35.20835,149.13901,,,0,,,,
1418,1418,Tuggeranong Pkwy before Sulwood Dr, ,-35.3726,149.0574,,,0,,,,
1417,1417,Tuggeranong Pkwy after Sulwood Dr, ,-35.37305,149.05689,,,0,,,,
1416,1416,Vansittart Cr before Pinkerton Cct, ,-35.39746,149.06426,,,0,,,,
4937,4937,Aikman Dr after Thirriwirri St, ,-35.23433,149.07842,,,0,,,,
4938,4938,Aikman Dr after Joy Cummings Pl, ,-35.23362,149.07867,,,0,,,,
4931,4931,Alpen St after Alfred Hill Dr, ,-35.2044,149.06017,,,0,,,,
4932,4932,Shakespeare Cr opp Fraser West Terminus, ,-35.19084,149.03554,,,0,,,,
4933,4933,Daley Cr opp Fraser East Terminus, ,-35.19,149.04721,,,0,,,,
4934,4934,Hoskins St before Dacre St, ,-35.21393,149.13765,,,0,,,,
4935,4935,Horse Park Dr after Overall Av, ,-35.17049,149.09877,,,0,,,,
1440,1440,Clive Steele Av before 2nd Coode St, ,-35.41444,149.09674,,,0,,,,
2770,2770,Woden Temporary Interchange Plt 6 Arrive, ,-35.34348,149.08722,,,0,,,,
2768,2768,Woden Temporary Interchange Plt 5, ,-35.34275,149.08704,,,0,,,,
4947,4947,Drake Brockman Dr opp Spofforth St, ,-35.22998,149.00899,,,0,,,,
1437,1437,Clive Steele Av opp 2nd Brain St, ,-35.41236,149.10002,,,0,,,,
2767,2767,Woden Temporary Interchange Plt 4, ,-35.34348,149.08731,,,0,,,,
1436,1436,Clive Steele Av opp 1st Priddle St, ,-35.41089,149.10072,,,0,,,,
4948,4948,Drake Brockman Dr after Spofforth St, ,-35.22974,149.00859,,,0,,,,
2766,2766,Woden Temporary Interchange Plt 4 Arrive, ,-35.34272,149.08713,,,0,,,,
4949,4949,Spofforth St opp 26, ,-35.22718,149.00627,,,0,,,,
1435,1435,Clive Steele Av before 2nd Priddle St, ,-35.41072,149.10069,,,0,,,,
2764,2764,Woden Temporary Interchange Plt 3 Arrive, ,-35.34328,149.08742,,,0,,,,
2763,2763,Woden Temporary Interchange Plt 3, ,-35.34274,149.08731,,,0,,,,
2762,2762,Woden Temporary Interchange Plt 2, ,-35.34349,149.08757,,,0,,,,
2761,2761,Woden Temporary Interchange Plt 1, ,-35.34297,149.08746,,,0,,,,
4940,4940,Alpen St after Kingsford Smith Dr, ,-35.20426,149.0602,,,0,,,,
4942,4942,Starke St after Blackham St, ,-35.2247,149.03018,,,0,,,,
4943,4943,Drake Brockman Dr opp Macnaughton St, ,-35.23195,149.01575,,,0,,,,
4944,4944,Drake Brockman Dr before MacNaughton St, ,-35.23187,149.01593,,,0,,,,
4945,4945,Drake Brockman Dr opp Trickett St, ,-35.23085,149.01158,,,0,,,,
1439,1439,Clive Steele Av before 2nd Fraenkel St, ,-35.41411,149.09705,,,0,,,,
1438,1438,Clive Steele Av before 2nd Brain St, ,-35.41288,149.09937,,,0,,,,
4946,4946,Drake Brockman Dr after Trickett St, ,-35.23074,149.01169,,,0,,,,
2769,2769,Woden Temporary Interchange Plt 6, ,-35.3433,149.08717,,,0,,,,
1451,1451,Clive Steele Av before 2nd Balsillie Cr, ,-35.41624,149.08801,,,0,,,,
1450,1450,Clive Steele Av opp 2nd Balsillie Cr, ,-35.41661,149.08653,,,0,,,,
4958,4958,Starke St opp Luke St, ,-35.22324,149.01675,,,0,,,,
1448,1448,Charleston St after Hallstrom Cct, ,-35.41809,149.08241,,,0,,,,
1447,1447,Charleston St before 1st William Hudson Cr, ,-35.41819,149.08244,,,0,,,,
4959,4959,Starke St after Luke St, ,-35.22351,149.01685,,,0,,,,
1446,1446,Charleston St after Blakey Cl, ,-35.41626,149.07936,,,0,,,,
1445,1445,Charleston St after 2nd William Hudson Cr, ,-35.41628,149.07918,,,0,,,,
1444,1444,Goodwin Aged Care Cockcroft Av, ,-35.41975,149.09705,,,0,,,,
1443,1443,Cockcroft Av before Kneeshaw St, ,-35.41988,149.09731,,,0,,,,
1442,1442,Cockcroft Av opp Monash Shops, ,-35.41674,149.09821,,,0,,,,
1441,1441,Monash Shops Cockcroft Av, ,-35.41706,149.09824,,,0,,,,
4950,4950,26 Spofforth St, ,-35.22698,149.00627,,,0,,,,
4951,4951,Spofforth St opp 44, ,-35.22528,149.00499,,,0,,,,
4952,4952,Beaurepaire Cr before Southern Cross Dr, ,-35.21973,149.01352,,,0,,,,
4953,4953,Beaurepaire Cr after Southern Cross Dr, ,-35.21984,149.01366,,,0,,,,
4954,4954,Beaurepaire Cr after 1st Armstrong Cr, ,-35.22207,149.01192,,,0,,,,
4955,4955,Beaurepaire Cr after 1st Pickworth St, ,-35.22217,149.01201,,,0,,,,
4956,4956,Starke St opp Beaurepaire Cr, ,-35.22601,149.01689,,,0,,,,
4957,4957,Starke St after Beaurepaire Cr, ,-35.22495,149.01669,,,0,,,,
1449,1449,Clive Steele Av before 1st Balsillie Cr, ,-35.41668,149.08621,,,0,,,,
